{
  "metadata": {
    "processedAt": "2026-02-05T06:35:26.736Z",
    "sourceFile": "202602 member ncix neucentrix.csv",
    "totalRecords": 821,
    "statistics": {
      "total": 822,
      "processed": 821,
      "skipped": 1,
      "membersByLocation": {
        "JAKARTA MERUYA": 11,
        "JAKARTA JATINEGARA": 28,
        "SURABAYA KEBALEN": 20,
        "BANDUNG LEMBONG": 85,
        "JAKARTA KARET TENGSIN": 158,
        "BALIKPAPAN BATUAMPAR": 37,
        "SURABAYA GUBENG": 75,
        "SEMARANG CANDI": 40,
        "YOGYAKARTA KOTABARU": 58,
        "DENPASAR KALIASEM": 45,
        "LAMPUNG TANJUNG KARANG": 8,
        "PALEMBANG TALANG KALAPA": 29,
        "MANADO PANIKI": 24,
        "PUGERAN YOGYAKARTA": 3,
        "PEKANBARU CENTRUM": 22,
        "PONTIANAK CENTRUM": 11,
        "MAKASSAR MATOANGIN": 43,
        "MALANG": 6,
        "BANJARMASIN ULIN": 27,
        "MEDAN CENTRUM": 38,
        "ACEH CENTRUM": 7,
        "BATAM CENTRE": 33,
        "BATAM CENTRE LT 4": 4,
        "SEMARANG BANYUMANIK": 2,
        "BATAM BUKITDANGAS": 1,
        "CIREBON": 6
      },
      "membershipTypes": {
        "Class A": 18,
        "Class B": 37,
        "Class C": 61,
        "Member": 0,
        "Non-Member": 705
      }
    }
  },
  "locations": [
    {
      "name": "JAKARTA KARET TENGSIN",
      "city": "Jakarta",
      "region": "DKI Jakarta",
      "lat": -6.1944,
      "lng": 106.8229
    },
    {
      "name": "JAKARTA JATINEGARA",
      "city": "Jakarta",
      "region": "DKI Jakarta",
      "lat": -6.2146,
      "lng": 106.8707
    },
    {
      "name": "JAKARTA MERUYA",
      "city": "Jakarta",
      "region": "DKI Jakarta",
      "lat": -6.1951,
      "lng": 106.7328
    },
    {
      "name": "SURABAYA GUBENG",
      "city": "Surabaya",
      "region": "Jawa Timur",
      "lat": -7.2651,
      "lng": 112.7524
    },
    {
      "name": "SURABAYA KEBALEN",
      "city": "Surabaya",
      "region": "Jawa Timur",
      "lat": -7.2775,
      "lng": 112.7391
    },
    {
      "name": "BANDUNG LEMBONG",
      "city": "Bandung",
      "region": "Jawa Barat",
      "lat": -6.9175,
      "lng": 107.6191
    },
    {
      "name": "SEMARANG CANDI",
      "city": "Semarang",
      "region": "Jawa Tengah",
      "lat": -7.0051,
      "lng": 110.4381
    },
    {
      "name": "YOGYAKARTA KOTABARU",
      "city": "Yogyakarta",
      "region": "DI Yogyakarta",
      "lat": -7.7956,
      "lng": 110.3695
    },
    {
      "name": "MEDAN CENTRUM",
      "city": "Medan",
      "region": "Sumatera Utara",
      "lat": 3.5952,
      "lng": 98.6722
    },
    {
      "name": "PALEMBANG TALANG KALAPA",
      "city": "Palembang",
      "region": "Sumatera Selatan",
      "lat": -2.9761,
      "lng": 104.7754
    },
    {
      "name": "PEKANBARU CENTRUM",
      "city": "Pekanbaru",
      "region": "Riau",
      "lat": 0.5071,
      "lng": 101.4478
    },
    {
      "name": "LAMPUNG TANJUNG KARANG",
      "city": "Bandar Lampung",
      "region": "Lampung",
      "lat": -5.4291,
      "lng": 105.2619
    },
    {
      "name": "DENPASAR KALIASEM",
      "city": "Denpasar",
      "region": "Bali",
      "lat": -8.6705,
      "lng": 115.2126
    },
    {
      "name": "MAKASSAR MATOANGIN",
      "city": "Makassar",
      "region": "Sulawesi Selatan",
      "lat": -5.1477,
      "lng": 119.4327
    },
    {
      "name": "MANADO PANIKI",
      "city": "Manado",
      "region": "Sulawesi Utara",
      "lat": 1.4748,
      "lng": 124.8421
    },
    {
      "name": "BALIKPAPAN BATUAMPAR",
      "city": "Balikpapan",
      "region": "Kalimantan Timur",
      "lat": -1.2379,
      "lng": 116.8529
    },
    {
      "name": "BANJARMASIN ULIN",
      "city": "Banjarmasin",
      "region": "Kalimantan Selatan",
      "lat": -3.3194,
      "lng": 114.5906
    },
    {
      "name": "PONTIANAK CENTRUM",
      "city": "Pontianak",
      "region": "Kalimantan Barat",
      "lat": -0.0263,
      "lng": 109.3425
    },
    {
      "name": "BATAM CENTRE",
      "city": "Batam",
      "region": "Kepulauan Riau",
      "lat": 1.1303,
      "lng": 104.0533
    },
    {
      "name": "ACEH CENTRUM",
      "city": "Banda Aceh",
      "region": "Aceh",
      "lat": 5.5577,
      "lng": 95.3222
    },
    {
      "name": "MALANG",
      "city": "Malang",
      "region": "Jawa Timur",
      "lat": -7.9666,
      "lng": 112.6326
    },
    {
      "name": "CIREBON",
      "city": "Cirebon",
      "region": "Jawa Barat",
      "lat": -6.7063,
      "lng": 108.557
    },
    {
      "name": "PUGERAN YOGYAKARTA",
      "city": "Yogyakarta",
      "region": "DI Yogyakarta",
      "lat": -7.7956,
      "lng": 110.3695
    },
    {
      "name": "BATAM CENTRE LT 4",
      "city": "Batam",
      "region": "Kepulauan Riau",
      "lat": 1.1303,
      "lng": 104.0533
    },
    {
      "name": "BATAM BUKITDANGAS",
      "city": "Batam",
      "region": "Kepulauan Riau",
      "lat": 1.1303,
      "lng": 104.0533
    },
    {
      "name": "SEMARANG BANYUMANIK",
      "city": "Semarang",
      "region": "Jawa Tengah",
      "lat": -7.0051,
      "lng": 110.4381
    }
  ],
  "members": [
    {
      "id": 1,
      "period": "202601",
      "customer": "ROYAL GOLDEN EAGLE INDONESIA",
      "location": "JAKARTA MERUYA",
      "locationDisplay": "Jakarta",
      "region": "DKI Jakarta",
      "latitude": -6.1951,
      "longitude": 106.7328,
      "membershipType": "Non-Member",
      "membershipRaw": ""
    },
    {
      "id": 2,
      "period": "202601",
      "customer": "UIN SUNAN GUNUNG JATI",
      "location": "JAKARTA JATINEGARA",
      "locationDisplay": "Jakarta",
      "region": "DKI Jakarta",
      "latitude": -6.2146,
      "longitude": 106.8707,
      "membershipType": "Non-Member",
      "membershipRaw": ""
    },
    {
      "id": 3,
      "period": "202601",
      "customer": "PDAM KAB BALANGAN",
      "location": "SURABAYA KEBALEN",
      "locationDisplay": "Surabaya",
      "region": "Jawa Timur",
      "latitude": -7.2775,
      "longitude": 112.7391,
      "membershipType": "Non-Member",
      "membershipRaw": ""
    },
    {
      "id": 4,
      "period": "202601",
      "customer": "PT USSI PINBUK PRIMA SOFTWARE",
      "location": "BANDUNG LEMBONG",
      "locationDisplay": "Bandung",
      "region": "Jawa Barat",
      "latitude": -6.9175,
      "longitude": 107.6191,
      "membershipType": "Non-Member",
      "membershipRaw": ""
    },
    {
      "id": 5,
      "period": "202601",
      "customer": "PT MEDIA CEPAT INDONESIA",
      "location": "JAKARTA KARET TENGSIN",
      "locationDisplay": "Jakarta",
      "region": "DKI Jakarta",
      "latitude": -6.1944,
      "longitude": 106.8229,
      "membershipType": "Non-Member",
      "membershipRaw": ""
    },
    {
      "id": 6,
      "period": "202601",
      "customer": "PT. PERTAMINA HULU KALIMANTAN TIMUR",
      "location": "BALIKPAPAN BATUAMPAR",
      "locationDisplay": "Balikpapan",
      "region": "Kalimantan Timur",
      "latitude": -1.2379,
      "longitude": 116.8529,
      "membershipType": "Non-Member",
      "membershipRaw": ""
    },
    {
      "id": 7,
      "period": "202601",
      "customer": "ATLANTIC RICHFIELD INDONESIA",
      "location": "SURABAYA GUBENG",
      "locationDisplay": "Surabaya",
      "region": "Jawa Timur",
      "latitude": -7.2651,
      "longitude": 112.7524,
      "membershipType": "Non-Member",
      "membershipRaw": ""
    },
    {
      "id": 8,
      "period": "202601",
      "customer": "UNISSULA",
      "location": "SEMARANG CANDI",
      "locationDisplay": "Semarang",
      "region": "Jawa Tengah",
      "latitude": -7.0051,
      "longitude": 110.4381,
      "membershipType": "Non-Member",
      "membershipRaw": ""
    },
    {
      "id": 9,
      "period": "202601",
      "customer": "UNIVERISTAS NEGERI YOGYAKARTA (IKIP)",
      "location": "YOGYAKARTA KOTABARU",
      "locationDisplay": "Yogyakarta",
      "region": "DI Yogyakarta",
      "latitude": -7.7956,
      "longitude": 110.3695,
      "membershipType": "Non-Member",
      "membershipRaw": ""
    },
    {
      "id": 10,
      "period": "202601",
      "customer": "PT KUPANG INTERMEDIA",
      "location": "DENPASAR KALIASEM",
      "locationDisplay": "Denpasar",
      "region": "Bali",
      "latitude": -8.6705,
      "longitude": 115.2126,
      "membershipType": "Non-Member",
      "membershipRaw": ""
    },
    {
      "id": 11,
      "period": "202601",
      "customer": "PEMKAB TAPIN",
      "location": "SURABAYA GUBENG",
      "locationDisplay": "Surabaya",
      "region": "Jawa Timur",
      "latitude": -7.2651,
      "longitude": 112.7524,
      "membershipType": "Non-Member",
      "membershipRaw": ""
    },
    {
      "id": 12,
      "period": "202601",
      "customer": "UNIV ATMAJAYA YOGYAKARTA",
      "location": "YOGYAKARTA KOTABARU",
      "locationDisplay": "Yogyakarta",
      "region": "DI Yogyakarta",
      "latitude": -7.7956,
      "longitude": 110.3695,
      "membershipType": "Non-Member",
      "membershipRaw": ""
    },
    {
      "id": 13,
      "period": "202601",
      "customer": "PT ARAZ INTI LINE",
      "location": "LAMPUNG TANJUNG KARANG",
      "locationDisplay": "Bandar Lampung",
      "region": "Lampung",
      "latitude": -5.4291,
      "longitude": 105.2619,
      "membershipType": "Non-Member",
      "membershipRaw": ""
    },
    {
      "id": 14,
      "period": "202601",
      "customer": "PT ALAM JAYA PRIMANUSA",
      "location": "SURABAYA GUBENG",
      "locationDisplay": "Surabaya",
      "region": "Jawa Timur",
      "latitude": -7.2651,
      "longitude": 112.7524,
      "membershipType": "Non-Member",
      "membershipRaw": ""
    },
    {
      "id": 15,
      "period": "202601",
      "customer": "PEMKOT SURABAYA",
      "location": "SURABAYA GUBENG",
      "locationDisplay": "Surabaya",
      "region": "Jawa Timur",
      "latitude": -7.2651,
      "longitude": 112.7524,
      "membershipType": "Non-Member",
      "membershipRaw": ""
    },
    {
      "id": 16,
      "period": "202601",
      "customer": "PT ATOME FINANCE INDONESIA",
      "location": "JAKARTA KARET TENGSIN",
      "locationDisplay": "Jakarta",
      "region": "DKI Jakarta",
      "latitude": -6.1944,
      "longitude": 106.8229,
      "membershipType": "Non-Member",
      "membershipRaw": ""
    },
    {
      "id": 17,
      "period": "202601",
      "customer": "PT SAKTI MEDIA TELEKOMUNIKASI",
      "location": "PALEMBANG TALANG KALAPA",
      "locationDisplay": "Palembang",
      "region": "Sumatera Selatan",
      "latitude": -2.9761,
      "longitude": 104.7754,
      "membershipType": "Non-Member",
      "membershipRaw": ""
    },
    {
      "id": 18,
      "period": "202601",
      "customer": "PT SUMATRA MULTIMEDIA SOLUSI",
      "location": "LAMPUNG TANJUNG KARANG",
      "locationDisplay": "Bandar Lampung",
      "region": "Lampung",
      "latitude": -5.4291,
      "longitude": 105.2619,
      "membershipType": "Non-Member",
      "membershipRaw": ""
    },
    {
      "id": 19,
      "period": "202601",
      "customer": "PT SYAPUTRA CAPITAL INVESTAMA",
      "location": "PALEMBANG TALANG KALAPA",
      "locationDisplay": "Palembang",
      "region": "Sumatera Selatan",
      "latitude": -2.9761,
      "longitude": 104.7754,
      "membershipType": "Non-Member",
      "membershipRaw": ""
    },
    {
      "id": 20,
      "period": "202601",
      "customer": "KEJAKSAAN AGUNG",
      "location": "JAKARTA KARET TENGSIN",
      "locationDisplay": "Jakarta",
      "region": "DKI Jakarta",
      "latitude": -6.1944,
      "longitude": 106.8229,
      "membershipType": "Non-Member",
      "membershipRaw": ""
    },
    {
      "id": 21,
      "period": "202601",
      "customer": "UNIVERSITAS SAM RATULANGI",
      "location": "MANADO PANIKI",
      "locationDisplay": "Manado",
      "region": "Sulawesi Utara",
      "latitude": 1.4748,
      "longitude": 124.8421,
      "membershipType": "Non-Member",
      "membershipRaw": ""
    },
    {
      "id": 22,
      "period": "202601",
      "customer": "RS KASIH IBU",
      "location": "PUGERAN YOGYAKARTA",
      "locationDisplay": "Yogyakarta",
      "region": "DI Yogyakarta",
      "latitude": -7.7956,
      "longitude": 110.3695,
      "membershipType": "Non-Member",
      "membershipRaw": ""
    },
    {
      "id": 23,
      "period": "202601",
      "customer": "PT. ADMINISTRASI MEDIKA",
      "location": "JAKARTA JATINEGARA",
      "locationDisplay": "Jakarta",
      "region": "DKI Jakarta",
      "latitude": -6.2146,
      "longitude": 106.8707,
      "membershipType": "Non-Member",
      "membershipRaw": ""
    },
    {
      "id": 24,
      "period": "202601",
      "customer": "PT DAWANG LESTARI INDAH",
      "location": "BANDUNG LEMBONG",
      "locationDisplay": "Bandung",
      "region": "Jawa Barat",
      "latitude": -6.9175,
      "longitude": 107.6191,
      "membershipType": "Non-Member",
      "membershipRaw": ""
    },
    {
      "id": 25,
      "period": "202601",
      "customer": "PT INFOMEDIA NUSANTARA",
      "location": "JAKARTA JATINEGARA",
      "locationDisplay": "Jakarta",
      "region": "DKI Jakarta",
      "latitude": -6.2146,
      "longitude": 106.8707,
      "membershipType": "Non-Member",
      "membershipRaw": ""
    },
    {
      "id": 26,
      "period": "202601",
      "customer": "MAHATO LINTAS BUANA",
      "location": "PEKANBARU CENTRUM",
      "locationDisplay": "Pekanbaru",
      "region": "Riau",
      "latitude": 0.5071,
      "longitude": 101.4478,
      "membershipType": "Non-Member",
      "membershipRaw": ""
    },
    {
      "id": 27,
      "period": "202601",
      "customer": "PT HIPERNET INDODATA",
      "location": "BANDUNG LEMBONG",
      "locationDisplay": "Bandung",
      "region": "Jawa Barat",
      "latitude": -6.9175,
      "longitude": 107.6191,
      "membershipType": "Non-Member",
      "membershipRaw": ""
    },
    {
      "id": 28,
      "period": "202601",
      "customer": "TELKOM INFRASTRUKTUR INDONESIA",
      "location": "SURABAYA GUBENG",
      "locationDisplay": "Surabaya",
      "region": "Jawa Timur",
      "latitude": -7.2651,
      "longitude": 112.7524,
      "membershipType": "Class C",
      "membershipRaw": "Membership Class C"
    },
    {
      "id": 29,
      "period": "202601",
      "customer": "MEGA AKSES PERSADA (FIBERSTAR)",
      "location": "SURABAYA GUBENG",
      "locationDisplay": "Surabaya",
      "region": "Jawa Timur",
      "latitude": -7.2651,
      "longitude": 112.7524,
      "membershipType": "Non-Member",
      "membershipRaw": ""
    },
    {
      "id": 30,
      "period": "202601",
      "customer": "MONSADATA NUANSA TEKNOLOGI",
      "location": "JAKARTA KARET TENGSIN",
      "locationDisplay": "Jakarta",
      "region": "DKI Jakarta",
      "latitude": -6.1944,
      "longitude": 106.8229,
      "membershipType": "Non-Member",
      "membershipRaw": ""
    },
    {
      "id": 31,
      "period": "202601",
      "customer": "PRIMAKOM INTERBUANA",
      "location": "JAKARTA KARET TENGSIN",
      "locationDisplay": "Jakarta",
      "region": "DKI Jakarta",
      "latitude": -6.1944,
      "longitude": 106.8229,
      "membershipType": "Class C",
      "membershipRaw": "Membership Class C"
    },
    {
      "id": 32,
      "period": "202601",
      "customer": "WOWRACK INDONESIA",
      "location": "JAKARTA MERUYA",
      "locationDisplay": "Jakarta",
      "region": "DKI Jakarta",
      "latitude": -6.1951,
      "longitude": 106.7328,
      "membershipType": "Non-Member",
      "membershipRaw": ""
    },
    {
      "id": 33,
      "period": "202601",
      "customer": "ERA NETWORK INDONESIA",
      "location": "SURABAYA GUBENG",
      "locationDisplay": "Surabaya",
      "region": "Jawa Timur",
      "latitude": -7.2651,
      "longitude": 112.7524,
      "membershipType": "Class C",
      "membershipRaw": "Membership Class C"
    },
    {
      "id": 34,
      "period": "202601",
      "customer": "TELKOM DWS-TRIAL 8IC",
      "location": "JAKARTA KARET TENGSIN",
      "locationDisplay": "Jakarta",
      "region": "DKI Jakarta",
      "latitude": -6.1944,
      "longitude": 106.8229,
      "membershipType": "Non-Member",
      "membershipRaw": ""
    },
    {
      "id": 35,
      "period": "202601",
      "customer": "JAVA DIGITAL NUSANTARA",
      "location": "PALEMBANG TALANG KALAPA",
      "locationDisplay": "Palembang",
      "region": "Sumatera Selatan",
      "latitude": -2.9761,
      "longitude": 104.7754,
      "membershipType": "Non-Member",
      "membershipRaw": ""
    },
    {
      "id": 36,
      "period": "202601",
      "customer": "PC24 CYBER TELIN",
      "location": "PONTIANAK CENTRUM",
      "locationDisplay": "Pontianak",
      "region": "Kalimantan Barat",
      "latitude": -0.0263,
      "longitude": 109.3425,
      "membershipType": "Non-Member",
      "membershipRaw": ""
    },
    {
      "id": 37,
      "period": "202601",
      "customer": "PC24 CYBER TELIN",
      "location": "MAKASSAR MATOANGIN",
      "locationDisplay": "Makassar",
      "region": "Sulawesi Selatan",
      "latitude": -5.1477,
      "longitude": 119.4327,
      "membershipType": "Non-Member",
      "membershipRaw": ""
    },
    {
      "id": 38,
      "period": "202601",
      "customer": "DATA UTAMA DINAMIKA",
      "location": "SEMARANG CANDI",
      "locationDisplay": "Semarang",
      "region": "Jawa Tengah",
      "latitude": -7.0051,
      "longitude": 110.4381,
      "membershipType": "Non-Member",
      "membershipRaw": ""
    },
    {
      "id": 39,
      "period": "202601",
      "customer": "MULTI TRANS DATA",
      "location": "JAKARTA KARET TENGSIN",
      "locationDisplay": "Jakarta",
      "region": "DKI Jakarta",
      "latitude": -6.1944,
      "longitude": 106.8229,
      "membershipType": "Non-Member",
      "membershipRaw": ""
    },
    {
      "id": 40,
      "period": "202601",
      "customer": "MITRA VISIONER PRATAMA",
      "location": "MALANG",
      "locationDisplay": "Malang",
      "region": "Jawa Timur",
      "latitude": -7.9666,
      "longitude": 112.6326,
      "membershipType": "Non-Member",
      "membershipRaw": ""
    },
    {
      "id": 41,
      "period": "202601",
      "customer": "XLSMART TELECOM SEJAHTERA",
      "location": "YOGYAKARTA KOTABARU",
      "locationDisplay": "Yogyakarta",
      "region": "DI Yogyakarta",
      "latitude": -7.7956,
      "longitude": 110.3695,
      "membershipType": "Non-Member",
      "membershipRaw": ""
    },
    {
      "id": 42,
      "period": "202601",
      "customer": "PT . INSAN SARANA TELEMATIKA",
      "location": "BANJARMASIN ULIN",
      "locationDisplay": "Banjarmasin",
      "region": "Kalimantan Selatan",
      "latitude": -3.3194,
      "longitude": 114.5906,
      "membershipType": "Non-Member",
      "membershipRaw": ""
    },
    {
      "id": 43,
      "period": "202601",
      "customer": "PT . INSAN SARANA TELEMATIKA",
      "location": "MANADO PANIKI",
      "locationDisplay": "Manado",
      "region": "Sulawesi Utara",
      "latitude": 1.4748,
      "longitude": 124.8421,
      "membershipType": "Non-Member",
      "membershipRaw": ""
    },
    {
      "id": 44,
      "period": "202601",
      "customer": "TELEKOMUNIKASI INDONESIA INTERNATIONAL",
      "location": "JAKARTA JATINEGARA",
      "locationDisplay": "Jakarta",
      "region": "DKI Jakarta",
      "latitude": -6.2146,
      "longitude": 106.8707,
      "membershipType": "Non-Member",
      "membershipRaw": ""
    },
    {
      "id": 45,
      "period": "202601",
      "customer": "SATUNOL DIGITAL TEKNOLOGI",
      "location": "MAKASSAR MATOANGIN",
      "locationDisplay": "Makassar",
      "region": "Sulawesi Selatan",
      "latitude": -5.1477,
      "longitude": 119.4327,
      "membershipType": "Non-Member",
      "membershipRaw": ""
    },
    {
      "id": 46,
      "period": "202601",
      "customer": "MEGA AKSES PERSADA (FIBERSTAR)",
      "location": "DENPASAR KALIASEM",
      "locationDisplay": "Denpasar",
      "region": "Bali",
      "latitude": -8.6705,
      "longitude": 115.2126,
      "membershipType": "Non-Member",
      "membershipRaw": ""
    },
    {
      "id": 47,
      "period": "202601",
      "customer": "INTI DATA TELEMATIKA",
      "location": "BALIKPAPAN BATUAMPAR",
      "locationDisplay": "Balikpapan",
      "region": "Kalimantan Timur",
      "latitude": -1.2379,
      "longitude": 116.8529,
      "membershipType": "Non-Member",
      "membershipRaw": ""
    },
    {
      "id": 48,
      "period": "202601",
      "customer": "SPARKOO TECHNOLOGIES INDONESIA",
      "location": "JAKARTA MERUYA",
      "locationDisplay": "Jakarta",
      "region": "DKI Jakarta",
      "latitude": -6.1951,
      "longitude": 106.7328,
      "membershipType": "Non-Member",
      "membershipRaw": ""
    },
    {
      "id": 49,
      "period": "202601",
      "customer": "PT HIPERNET INDODATA",
      "location": "JAKARTA KARET TENGSIN",
      "locationDisplay": "Jakarta",
      "region": "DKI Jakarta",
      "latitude": -6.1944,
      "longitude": 106.8229,
      "membershipType": "Class A",
      "membershipRaw": "Membership Class A"
    },
    {
      "id": 50,
      "period": "202601",
      "customer": "PASTI MANDIRI SOLUSI",
      "location": "PEKANBARU CENTRUM",
      "locationDisplay": "Pekanbaru",
      "region": "Riau",
      "latitude": 0.5071,
      "longitude": 101.4478,
      "membershipType": "Non-Member",
      "membershipRaw": ""
    },
    {
      "id": 51,
      "period": "202601",
      "customer": "CENDIKIA GLOBAL SOLUSI",
      "location": "PALEMBANG TALANG KALAPA",
      "locationDisplay": "Palembang",
      "region": "Sumatera Selatan",
      "latitude": -2.9761,
      "longitude": 104.7754,
      "membershipType": "Non-Member",
      "membershipRaw": ""
    },
    {
      "id": 52,
      "period": "202601",
      "customer": "Nuon Digital Indonesia",
      "location": "JAKARTA KARET TENGSIN",
      "locationDisplay": "Jakarta",
      "region": "DKI Jakarta",
      "latitude": -6.1944,
      "longitude": 106.8229,
      "membershipType": "Non-Member",
      "membershipRaw": ""
    },
    {
      "id": 53,
      "period": "202601",
      "customer": "INDONUSA SYSTEM INTEGRATOR PRIMA",
      "location": "SURABAYA GUBENG",
      "locationDisplay": "Surabaya",
      "region": "Jawa Timur",
      "latitude": -7.2651,
      "longitude": 112.7524,
      "membershipType": "Non-Member",
      "membershipRaw": ""
    },
    {
      "id": 54,
      "period": "202601",
      "customer": "PT. PARSAORAN GLOBAL DATATRANS (HSPNET)",
      "location": "JAKARTA KARET TENGSIN",
      "locationDisplay": "Jakarta",
      "region": "DKI Jakarta",
      "latitude": -6.1944,
      "longitude": 106.8229,
      "membershipType": "Non-Member",
      "membershipRaw": ""
    },
    {
      "id": 55,
      "period": "202601",
      "customer": "SISINDOKOM LINTASBUANA",
      "location": "JAKARTA MERUYA",
      "locationDisplay": "Jakarta",
      "region": "DKI Jakarta",
      "latitude": -6.1951,
      "longitude": 106.7328,
      "membershipType": "Non-Member",
      "membershipRaw": ""
    },
    {
      "id": 56,
      "period": "202601",
      "customer": "TELEKOMUNIKASI INDONESIA INTERNATIONAL",
      "location": "JAKARTA MERUYA",
      "locationDisplay": "Jakarta",
      "region": "DKI Jakarta",
      "latitude": -6.1951,
      "longitude": 106.7328,
      "membershipType": "Non-Member",
      "membershipRaw": ""
    },
    {
      "id": 57,
      "period": "202601",
      "customer": "TELEKOMUNIKASI INDONESIA INTERNATIONAL",
      "location": "MAKASSAR MATOANGIN",
      "locationDisplay": "Makassar",
      "region": "Sulawesi Selatan",
      "latitude": -5.1477,
      "longitude": 119.4327,
      "membershipType": "Non-Member",
      "membershipRaw": ""
    },
    {
      "id": 58,
      "period": "202601",
      "customer": "NETSPEED BROADBAND INDONESIA",
      "location": "BANDUNG LEMBONG",
      "locationDisplay": "Bandung",
      "region": "Jawa Barat",
      "latitude": -6.9175,
      "longitude": 107.6191,
      "membershipType": "Non-Member",
      "membershipRaw": ""
    },
    {
      "id": 59,
      "period": "202601",
      "customer": "TELEKOMUNIKASI INDONESIA INTERNATIONAL",
      "location": "DENPASAR KALIASEM",
      "locationDisplay": "Denpasar",
      "region": "Bali",
      "latitude": -8.6705,
      "longitude": 115.2126,
      "membershipType": "Non-Member",
      "membershipRaw": ""
    },
    {
      "id": 60,
      "period": "202601",
      "customer": "SARANA INSAN MUDA SELARAS (SIMS)",
      "location": "YOGYAKARTA KOTABARU",
      "locationDisplay": "Yogyakarta",
      "region": "DI Yogyakarta",
      "latitude": -7.7956,
      "longitude": 110.3695,
      "membershipType": "Non-Member",
      "membershipRaw": ""
    },
    {
      "id": 61,
      "period": "202601",
      "customer": "PT JEMBATAN CITRA NUSANTARA",
      "location": "YOGYAKARTA KOTABARU",
      "locationDisplay": "Yogyakarta",
      "region": "DI Yogyakarta",
      "latitude": -7.7956,
      "longitude": 110.3695,
      "membershipType": "Non-Member",
      "membershipRaw": ""
    },
    {
      "id": 62,
      "period": "202601",
      "customer": "INOVASI TJARAKA BUANA",
      "location": "DENPASAR KALIASEM",
      "locationDisplay": "Denpasar",
      "region": "Bali",
      "latitude": -8.6705,
      "longitude": 115.2126,
      "membershipType": "Non-Member",
      "membershipRaw": ""
    },
    {
      "id": 63,
      "period": "202601",
      "customer": "LINKNET",
      "location": "SURABAYA GUBENG",
      "locationDisplay": "Surabaya",
      "region": "Jawa Timur",
      "latitude": -7.2651,
      "longitude": 112.7524,
      "membershipType": "Non-Member",
      "membershipRaw": ""
    },
    {
      "id": 64,
      "period": "202601",
      "customer": "UNION ROUTELINK COMMUNICATION",
      "location": "BALIKPAPAN BATUAMPAR",
      "locationDisplay": "Balikpapan",
      "region": "Kalimantan Timur",
      "latitude": -1.2379,
      "longitude": 116.8529,
      "membershipType": "Non-Member",
      "membershipRaw": ""
    },
    {
      "id": 65,
      "period": "202601",
      "customer": "PRATAMA HASTA UTAMA SOLUSINDO",
      "location": "SURABAYA GUBENG",
      "locationDisplay": "Surabaya",
      "region": "Jawa Timur",
      "latitude": -7.2651,
      "longitude": 112.7524,
      "membershipType": "Class C",
      "membershipRaw": "Membership Class C"
    },
    {
      "id": 66,
      "period": "202601",
      "customer": "TELKOM INFRASTRUKTUR INDONESIA",
      "location": "JAKARTA KARET TENGSIN",
      "locationDisplay": "Jakarta",
      "region": "DKI Jakarta",
      "latitude": -6.1944,
      "longitude": 106.8229,
      "membershipType": "Class B",
      "membershipRaw": "Membership Class B"
    },
    {
      "id": 67,
      "period": "202601",
      "customer": "TELKOM INFRASTRUKTUR INDONESIA",
      "location": "MEDAN CENTRUM",
      "locationDisplay": "Medan",
      "region": "Sumatera Utara",
      "latitude": 3.5952,
      "longitude": 98.6722,
      "membershipType": "Non-Member",
      "membershipRaw": ""
    },
    {
      "id": 68,
      "period": "202601",
      "customer": "TRIAS INFRA SARANA",
      "location": "MEDAN CENTRUM",
      "locationDisplay": "Medan",
      "region": "Sumatera Utara",
      "latitude": 3.5952,
      "longitude": 98.6722,
      "membershipType": "Non-Member",
      "membershipRaw": ""
    },
    {
      "id": 69,
      "period": "202601",
      "customer": "CMDJ NETWORK SOLUTION",
      "location": "YOGYAKARTA KOTABARU",
      "locationDisplay": "Yogyakarta",
      "region": "DI Yogyakarta",
      "latitude": -7.7956,
      "longitude": 110.3695,
      "membershipType": "Non-Member",
      "membershipRaw": ""
    },
    {
      "id": 70,
      "period": "202601",
      "customer": "Integra Kreasitama Solusindo",
      "location": "MEDAN CENTRUM",
      "locationDisplay": "Medan",
      "region": "Sumatera Utara",
      "latitude": 3.5952,
      "longitude": 98.6722,
      "membershipType": "Class B",
      "membershipRaw": "Membership Class B"
    },
    {
      "id": 71,
      "period": "202601",
      "customer": "PT NAP INFO LINTAS NUSA",
      "location": "JAKARTA KARET TENGSIN",
      "locationDisplay": "Jakarta",
      "region": "DKI Jakarta",
      "latitude": -6.1944,
      "longitude": 106.8229,
      "membershipType": "Class B",
      "membershipRaw": "Membership Class B"
    },
    {
      "id": 72,
      "period": "202601",
      "customer": "PT MORA TELEMATIKA INDONESIA",
      "location": "JAKARTA KARET TENGSIN",
      "locationDisplay": "Jakarta",
      "region": "DKI Jakarta",
      "latitude": -6.1944,
      "longitude": 106.8229,
      "membershipType": "Non-Member",
      "membershipRaw": ""
    },
    {
      "id": 73,
      "period": "202601",
      "customer": "TRANS INDONESIA SUPERKORIDOR (TIS)",
      "location": "BANDUNG LEMBONG",
      "locationDisplay": "Bandung",
      "region": "Jawa Barat",
      "latitude": -6.9175,
      "longitude": 107.6191,
      "membershipType": "Non-Member",
      "membershipRaw": ""
    },
    {
      "id": 74,
      "period": "202601",
      "customer": "PT APLIKANUSA LINTASARTA",
      "location": "MANADO PANIKI",
      "locationDisplay": "Manado",
      "region": "Sulawesi Utara",
      "latitude": 1.4748,
      "longitude": 124.8421,
      "membershipType": "Non-Member",
      "membershipRaw": ""
    },
    {
      "id": 75,
      "period": "202601",
      "customer": "SUMBER DATA INDONESIA",
      "location": "JAKARTA KARET TENGSIN",
      "locationDisplay": "Jakarta",
      "region": "DKI Jakarta",
      "latitude": -6.1944,
      "longitude": 106.8229,
      "membershipType": "Non-Member",
      "membershipRaw": ""
    },
    {
      "id": 76,
      "period": "202601",
      "customer": "BOOMBAS CARLO MEDIANET",
      "location": "YOGYAKARTA KOTABARU",
      "locationDisplay": "Yogyakarta",
      "region": "DI Yogyakarta",
      "latitude": -7.7956,
      "longitude": 110.3695,
      "membershipType": "Non-Member",
      "membershipRaw": ""
    },
    {
      "id": 77,
      "period": "202601",
      "customer": "MISQOT SEJAHTERA INDONESIA",
      "location": "JAKARTA KARET TENGSIN",
      "locationDisplay": "Jakarta",
      "region": "DKI Jakarta",
      "latitude": -6.1944,
      "longitude": 106.8229,
      "membershipType": "Non-Member",
      "membershipRaw": ""
    },
    {
      "id": 78,
      "period": "202601",
      "customer": "PT APLIKANUSA LINTASARTA",
      "location": "LAMPUNG TANJUNG KARANG",
      "locationDisplay": "Bandar Lampung",
      "region": "Lampung",
      "latitude": -5.4291,
      "longitude": 105.2619,
      "membershipType": "Non-Member",
      "membershipRaw": ""
    },
    {
      "id": 79,
      "period": "202601",
      "customer": "PT EKA MAS REPUBLIK",
      "location": "DENPASAR KALIASEM",
      "locationDisplay": "Denpasar",
      "region": "Bali",
      "latitude": -8.6705,
      "longitude": 115.2126,
      "membershipType": "Non-Member",
      "membershipRaw": ""
    },
    {
      "id": 80,
      "period": "202601",
      "customer": "JALA LINTAS MEDIA",
      "location": "JAKARTA KARET TENGSIN",
      "locationDisplay": "Jakarta",
      "region": "DKI Jakarta",
      "latitude": -6.1944,
      "longitude": 106.8229,
      "membershipType": "Class A",
      "membershipRaw": "Membership Class A"
    },
    {
      "id": 81,
      "period": "202601",
      "customer": "KONNEK JAYA BERSAMA",
      "location": "JAKARTA KARET TENGSIN",
      "locationDisplay": "Jakarta",
      "region": "DKI Jakarta",
      "latitude": -6.1944,
      "longitude": 106.8229,
      "membershipType": "Class C",
      "membershipRaw": "Membership Class C"
    },
    {
      "id": 82,
      "period": "202601",
      "customer": "PROXI JARINGAN NUSANTARA",
      "location": "BANJARMASIN ULIN",
      "locationDisplay": "Banjarmasin",
      "region": "Kalimantan Selatan",
      "latitude": -3.3194,
      "longitude": 114.5906,
      "membershipType": "Non-Member",
      "membershipRaw": ""
    },
    {
      "id": 83,
      "period": "202601",
      "customer": "QUANTUM TERA NETWORK",
      "location": "JAKARTA KARET TENGSIN",
      "locationDisplay": "Jakarta",
      "region": "DKI Jakarta",
      "latitude": -6.1944,
      "longitude": 106.8229,
      "membershipType": "Non-Member",
      "membershipRaw": ""
    },
    {
      "id": 84,
      "period": "202601",
      "customer": "MILENIAL INTI TELEKOMUNIKASI",
      "location": "BALIKPAPAN BATUAMPAR",
      "locationDisplay": "Balikpapan",
      "region": "Kalimantan Timur",
      "latitude": -1.2379,
      "longitude": 116.8529,
      "membershipType": "Non-Member",
      "membershipRaw": ""
    },
    {
      "id": 85,
      "period": "202601",
      "customer": "JARINGANKU SARANA NUSANTARA",
      "location": "PALEMBANG TALANG KALAPA",
      "locationDisplay": "Palembang",
      "region": "Sumatera Selatan",
      "latitude": -2.9761,
      "longitude": 104.7754,
      "membershipType": "Non-Member",
      "membershipRaw": ""
    },
    {
      "id": 86,
      "period": "202601",
      "customer": "PT PGAS Telekomunikasi Nusantara",
      "location": "MEDAN CENTRUM",
      "locationDisplay": "Medan",
      "region": "Sumatera Utara",
      "latitude": 3.5952,
      "longitude": 98.6722,
      "membershipType": "Non-Member",
      "membershipRaw": ""
    },
    {
      "id": 87,
      "period": "202601",
      "customer": "WAHYU ADIDAYA NETWORK",
      "location": "SEMARANG CANDI",
      "locationDisplay": "Semarang",
      "region": "Jawa Tengah",
      "latitude": -7.0051,
      "longitude": 110.4381,
      "membershipType": "Non-Member",
      "membershipRaw": ""
    },
    {
      "id": 88,
      "period": "202601",
      "customer": "MAXINDO MITRA SOLUSI",
      "location": "BANDUNG LEMBONG",
      "locationDisplay": "Bandung",
      "region": "Jawa Barat",
      "latitude": -6.9175,
      "longitude": 107.6191,
      "membershipType": "Non-Member",
      "membershipRaw": ""
    },
    {
      "id": 89,
      "period": "202601",
      "customer": "FIBER NETWORKS INDONESIA",
      "location": "PEKANBARU CENTRUM",
      "locationDisplay": "Pekanbaru",
      "region": "Riau",
      "latitude": 0.5071,
      "longitude": 101.4478,
      "membershipType": "Non-Member",
      "membershipRaw": ""
    },
    {
      "id": 90,
      "period": "202601",
      "customer": "PT Trans Hybrid Communication",
      "location": "SURABAYA GUBENG",
      "locationDisplay": "Surabaya",
      "region": "Jawa Timur",
      "latitude": -7.2651,
      "longitude": 112.7524,
      "membershipType": "Non-Member",
      "membershipRaw": ""
    },
    {
      "id": 91,
      "period": "202601",
      "customer": "LINTAS DATA PRIMA (LDP)",
      "location": "SURABAYA GUBENG",
      "locationDisplay": "Surabaya",
      "region": "Jawa Timur",
      "latitude": -7.2651,
      "longitude": 112.7524,
      "membershipType": "Class B",
      "membershipRaw": "Membership Class B"
    },
    {
      "id": 92,
      "period": "202601",
      "customer": "CLOUD HOSTING INDONESIA",
      "location": "JAKARTA KARET TENGSIN",
      "locationDisplay": "Jakarta",
      "region": "DKI Jakarta",
      "latitude": -6.1944,
      "longitude": 106.8229,
      "membershipType": "Class B",
      "membershipRaw": "Membership Class B"
    },
    {
      "id": 93,
      "period": "202601",
      "customer": "MEDIA SARANA AKSES (MSA)",
      "location": "SEMARANG CANDI",
      "locationDisplay": "Semarang",
      "region": "Jawa Tengah",
      "latitude": -7.0051,
      "longitude": 110.4381,
      "membershipType": "Non-Member",
      "membershipRaw": ""
    },
    {
      "id": 94,
      "period": "202601",
      "customer": "JARINGAN VNT INDONESIA",
      "location": "BANDUNG LEMBONG",
      "locationDisplay": "Bandung",
      "region": "Jawa Barat",
      "latitude": -6.9175,
      "longitude": 107.6191,
      "membershipType": "Non-Member",
      "membershipRaw": ""
    },
    {
      "id": 95,
      "period": "202601",
      "customer": "PUTRA LEBAK BANTEN",
      "location": "JAKARTA KARET TENGSIN",
      "locationDisplay": "Jakarta",
      "region": "DKI Jakarta",
      "latitude": -6.1944,
      "longitude": 106.8229,
      "membershipType": "Non-Member",
      "membershipRaw": ""
    },
    {
      "id": 96,
      "period": "202601",
      "customer": "MULTI TRANS DATA",
      "location": "DENPASAR KALIASEM",
      "locationDisplay": "Denpasar",
      "region": "Bali",
      "latitude": -8.6705,
      "longitude": 115.2126,
      "membershipType": "Non-Member",
      "membershipRaw": ""
    },
    {
      "id": 97,
      "period": "202601",
      "customer": "PT INDONESIA COMNET PLUS",
      "location": "ACEH CENTRUM",
      "locationDisplay": "Banda Aceh",
      "region": "Aceh",
      "latitude": 5.5577,
      "longitude": 95.3222,
      "membershipType": "Non-Member",
      "membershipRaw": ""
    },
    {
      "id": 98,
      "period": "202601",
      "customer": "PT SYAPUTRA CAPITAL INVESTAMA",
      "location": "JAKARTA KARET TENGSIN",
      "locationDisplay": "Jakarta",
      "region": "DKI Jakarta",
      "latitude": -6.1944,
      "longitude": 106.8229,
      "membershipType": "Class B",
      "membershipRaw": "Membership Class B"
    },
    {
      "id": 99,
      "period": "202601",
      "customer": "PT NATHA BUANA INDONESIA",
      "location": "BANDUNG LEMBONG",
      "locationDisplay": "Bandung",
      "region": "Jawa Barat",
      "latitude": -6.9175,
      "longitude": 107.6191,
      "membershipType": "Non-Member",
      "membershipRaw": ""
    },
    {
      "id": 100,
      "period": "202601",
      "customer": "UNIVESITAS TANJUNGPURA",
      "location": "PONTIANAK CENTRUM",
      "locationDisplay": "Pontianak",
      "region": "Kalimantan Barat",
      "latitude": -0.0263,
      "longitude": 109.3425,
      "membershipType": "Non-Member",
      "membershipRaw": ""
    },
    {
      "id": 101,
      "period": "202601",
      "customer": "PT UGT SYSTEM INTEGRATOR DEVELOPMENT",
      "location": "SURABAYA GUBENG",
      "locationDisplay": "Surabaya",
      "region": "Jawa Timur",
      "latitude": -7.2651,
      "longitude": 112.7524,
      "membershipType": "Non-Member",
      "membershipRaw": ""
    },
    {
      "id": 102,
      "period": "202601",
      "customer": "PEMKAB BANDUNG BARAT",
      "location": "BATAM CENTRE",
      "locationDisplay": "Batam",
      "region": "Kepulauan Riau",
      "latitude": 1.1303,
      "longitude": 104.0533,
      "membershipType": "Non-Member",
      "membershipRaw": ""
    },
    {
      "id": 103,
      "period": "202601",
      "customer": "POLDA DI YOGYAKARTA",
      "location": "YOGYAKARTA KOTABARU",
      "locationDisplay": "Yogyakarta",
      "region": "DI Yogyakarta",
      "latitude": -7.7956,
      "longitude": 110.3695,
      "membershipType": "Non-Member",
      "membershipRaw": ""
    },
    {
      "id": 104,
      "period": "202601",
      "customer": "PT GLOBAL TIKET NETWORK",
      "location": "BANDUNG LEMBONG",
      "locationDisplay": "Bandung",
      "region": "Jawa Barat",
      "latitude": -6.9175,
      "longitude": 107.6191,
      "membershipType": "Non-Member",
      "membershipRaw": ""
    },
    {
      "id": 105,
      "period": "202601",
      "customer": "BANK KALTIM",
      "location": "BALIKPAPAN BATUAMPAR",
      "locationDisplay": "Balikpapan",
      "region": "Kalimantan Timur",
      "latitude": -1.2379,
      "longitude": 116.8529,
      "membershipType": "Non-Member",
      "membershipRaw": ""
    },
    {
      "id": 106,
      "period": "202601",
      "customer": "RAJAWALI ADIWISMA",
      "location": "JAKARTA JATINEGARA",
      "locationDisplay": "Jakarta",
      "region": "DKI Jakarta",
      "latitude": -6.2146,
      "longitude": 106.8707,
      "membershipType": "Non-Member",
      "membershipRaw": ""
    },
    {
      "id": 107,
      "period": "202601",
      "customer": "PEMKOT BOGOR",
      "location": "JAKARTA JATINEGARA",
      "locationDisplay": "Jakarta",
      "region": "DKI Jakarta",
      "latitude": -6.2146,
      "longitude": 106.8707,
      "membershipType": "Non-Member",
      "membershipRaw": ""
    },
    {
      "id": 108,
      "period": "202601",
      "customer": "KEMENTERIAN KOMUNIKASI DAN DIGITAL",
      "location": "BATAM CENTRE",
      "locationDisplay": "Batam",
      "region": "Kepulauan Riau",
      "latitude": 1.1303,
      "longitude": 104.0533,
      "membershipType": "Non-Member",
      "membershipRaw": ""
    },
    {
      "id": 109,
      "period": "202601",
      "customer": "PERKEBUNAN NUSANTARA X",
      "location": "SURABAYA KEBALEN",
      "locationDisplay": "Surabaya",
      "region": "Jawa Timur",
      "latitude": -7.2775,
      "longitude": 112.7391,
      "membershipType": "Non-Member",
      "membershipRaw": ""
    },
    {
      "id": 110,
      "period": "202601",
      "customer": "JAYA TEKNIK INDONESIA",
      "location": "BANDUNG LEMBONG",
      "locationDisplay": "Bandung",
      "region": "Jawa Barat",
      "latitude": -6.9175,
      "longitude": 107.6191,
      "membershipType": "Non-Member",
      "membershipRaw": ""
    },
    {
      "id": 111,
      "period": "202601",
      "customer": "PT BUANA VISUALNET SENTRA",
      "location": "BATAM CENTRE LT 4",
      "locationDisplay": "Batam",
      "region": "Kepulauan Riau",
      "latitude": 1.1303,
      "longitude": 104.0533,
      "membershipType": "Non-Member",
      "membershipRaw": ""
    },
    {
      "id": 112,
      "period": "202601",
      "customer": "PT NATHA BUANA INDONESIA",
      "location": "JAKARTA KARET TENGSIN",
      "locationDisplay": "Jakarta",
      "region": "DKI Jakarta",
      "latitude": -6.1944,
      "longitude": 106.8229,
      "membershipType": "Non-Member",
      "membershipRaw": ""
    },
    {
      "id": 113,
      "period": "202601",
      "customer": "PEMKAB NATUNA",
      "location": "BATAM CENTRE",
      "locationDisplay": "Batam",
      "region": "Kepulauan Riau",
      "latitude": 1.1303,
      "longitude": 104.0533,
      "membershipType": "Non-Member",
      "membershipRaw": ""
    },
    {
      "id": 114,
      "period": "202601",
      "customer": "PT INTEGRASI LOGISTIK CIPTA SOLUSI",
      "location": "JAKARTA KARET TENGSIN",
      "locationDisplay": "Jakarta",
      "region": "DKI Jakarta",
      "latitude": -6.1944,
      "longitude": 106.8229,
      "membershipType": "Class B",
      "membershipRaw": "Membership Class B"
    },
    {
      "id": 115,
      "period": "202601",
      "customer": "PEMKOT PALU",
      "location": "MAKASSAR MATOANGIN",
      "locationDisplay": "Makassar",
      "region": "Sulawesi Selatan",
      "latitude": -5.1477,
      "longitude": 119.4327,
      "membershipType": "Non-Member",
      "membershipRaw": ""
    },
    {
      "id": 116,
      "period": "202601",
      "customer": "PEMKAB BALANGAN",
      "location": "BANJARMASIN ULIN",
      "locationDisplay": "Banjarmasin",
      "region": "Kalimantan Selatan",
      "latitude": -3.3194,
      "longitude": 114.5906,
      "membershipType": "Non-Member",
      "membershipRaw": ""
    },
    {
      "id": 117,
      "period": "202601",
      "customer": "KOP JASA PEMASARAN POJOK SYARIAH",
      "location": "BANDUNG LEMBONG",
      "locationDisplay": "Bandung",
      "region": "Jawa Barat",
      "latitude": -6.9175,
      "longitude": 107.6191,
      "membershipType": "Non-Member",
      "membershipRaw": ""
    },
    {
      "id": 118,
      "period": "202601",
      "customer": "BPD SUMATERA SELATAN",
      "location": "PALEMBANG TALANG KALAPA",
      "locationDisplay": "Palembang",
      "region": "Sumatera Selatan",
      "latitude": -2.9761,
      "longitude": 104.7754,
      "membershipType": "Non-Member",
      "membershipRaw": ""
    },
    {
      "id": 119,
      "period": "202601",
      "customer": "PT INFOMEDIA NUSANTARA",
      "location": "SURABAYA KEBALEN",
      "locationDisplay": "Surabaya",
      "region": "Jawa Timur",
      "latitude": -7.2775,
      "longitude": 112.7391,
      "membershipType": "Non-Member",
      "membershipRaw": ""
    },
    {
      "id": 120,
      "period": "202601",
      "customer": "TELEKOMUNIKASI INDONESIA INTERNATIONAL",
      "location": "BANDUNG LEMBONG",
      "locationDisplay": "Bandung",
      "region": "Jawa Barat",
      "latitude": -6.9175,
      "longitude": 107.6191,
      "membershipType": "Non-Member",
      "membershipRaw": ""
    },
    {
      "id": 121,
      "period": "202601",
      "customer": "CITRA AGUNG MESTIKA",
      "location": "MAKASSAR MATOANGIN",
      "locationDisplay": "Makassar",
      "region": "Sulawesi Selatan",
      "latitude": -5.1477,
      "longitude": 119.4327,
      "membershipType": "Non-Member",
      "membershipRaw": ""
    },
    {
      "id": 122,
      "period": "202601",
      "customer": "MITRA VISIONER PRATAMA",
      "location": "SURABAYA GUBENG",
      "locationDisplay": "Surabaya",
      "region": "Jawa Timur",
      "latitude": -7.2651,
      "longitude": 112.7524,
      "membershipType": "Non-Member",
      "membershipRaw": ""
    },
    {
      "id": 123,
      "period": "202601",
      "customer": "PT . INSAN SARANA TELEMATIKA",
      "location": "YOGYAKARTA KOTABARU",
      "locationDisplay": "Yogyakarta",
      "region": "DI Yogyakarta",
      "latitude": -7.7956,
      "longitude": 110.3695,
      "membershipType": "Non-Member",
      "membershipRaw": ""
    },
    {
      "id": 124,
      "period": "202601",
      "customer": "ZINET MEDIA NUSANTARA",
      "location": "DENPASAR KALIASEM",
      "locationDisplay": "Denpasar",
      "region": "Bali",
      "latitude": -8.6705,
      "longitude": 115.2126,
      "membershipType": "Non-Member",
      "membershipRaw": ""
    },
    {
      "id": 125,
      "period": "202601",
      "customer": "TELEKOMUNIKASI INDONESIA INTERNATIONAL",
      "location": "BATAM CENTRE",
      "locationDisplay": "Batam",
      "region": "Kepulauan Riau",
      "latitude": 1.1303,
      "longitude": 104.0533,
      "membershipType": "Non-Member",
      "membershipRaw": ""
    },
    {
      "id": 126,
      "period": "202601",
      "customer": "TELKOM INFRASTRUKTUR INDONESIA",
      "location": "PEKANBARU CENTRUM",
      "locationDisplay": "Pekanbaru",
      "region": "Riau",
      "latitude": 0.5071,
      "longitude": 101.4478,
      "membershipType": "Non-Member",
      "membershipRaw": ""
    },
    {
      "id": 127,
      "period": "202601",
      "customer": "PT . INSAN SARANA TELEMATIKA",
      "location": "YOGYAKARTA KOTABARU",
      "locationDisplay": "Yogyakarta",
      "region": "DI Yogyakarta",
      "latitude": -7.7956,
      "longitude": 110.3695,
      "membershipType": "Class C",
      "membershipRaw": "Membership Class C"
    },
    {
      "id": 128,
      "period": "202601",
      "customer": "VARNION TECHNOLOGY SEMESTA",
      "location": "DENPASAR KALIASEM",
      "locationDisplay": "Denpasar",
      "region": "Bali",
      "latitude": -8.6705,
      "longitude": 115.2126,
      "membershipType": "Non-Member",
      "membershipRaw": ""
    },
    {
      "id": 129,
      "period": "202601",
      "customer": "TELKOM INFRASTRUKTUR INDONESIA",
      "location": "BATAM CENTRE",
      "locationDisplay": "Batam",
      "region": "Kepulauan Riau",
      "latitude": 1.1303,
      "longitude": 104.0533,
      "membershipType": "Non-Member",
      "membershipRaw": ""
    },
    {
      "id": 130,
      "period": "202601",
      "customer": "INDITECH GLOBAL NETWORK",
      "location": "YOGYAKARTA KOTABARU",
      "locationDisplay": "Yogyakarta",
      "region": "DI Yogyakarta",
      "latitude": -7.7956,
      "longitude": 110.3695,
      "membershipType": "Non-Member",
      "membershipRaw": ""
    },
    {
      "id": 131,
      "period": "202601",
      "customer": "PROXI JARINGAN NUSANTARA",
      "location": "BATAM CENTRE",
      "locationDisplay": "Batam",
      "region": "Kepulauan Riau",
      "latitude": 1.1303,
      "longitude": 104.0533,
      "membershipType": "Non-Member",
      "membershipRaw": ""
    },
    {
      "id": 132,
      "period": "202601",
      "customer": "MULTIMEDIA DATA SENTRA",
      "location": "PALEMBANG TALANG KALAPA",
      "locationDisplay": "Palembang",
      "region": "Sumatera Selatan",
      "latitude": -2.9761,
      "longitude": 104.7754,
      "membershipType": "Non-Member",
      "membershipRaw": ""
    },
    {
      "id": 133,
      "period": "202601",
      "customer": "PT . INSAN SARANA TELEMATIKA",
      "location": "JAKARTA KARET TENGSIN",
      "locationDisplay": "Jakarta",
      "region": "DKI Jakarta",
      "latitude": -6.1944,
      "longitude": 106.8229,
      "membershipType": "Non-Member",
      "membershipRaw": ""
    },
    {
      "id": 134,
      "period": "202601",
      "customer": "PT INDOSAT TBK",
      "location": "BALIKPAPAN BATUAMPAR",
      "locationDisplay": "Balikpapan",
      "region": "Kalimantan Timur",
      "latitude": -1.2379,
      "longitude": 116.8529,
      "membershipType": "Non-Member",
      "membershipRaw": ""
    },
    {
      "id": 135,
      "period": "202601",
      "customer": "CENDIKIA GLOBAL SOLUSI",
      "location": "BANJARMASIN ULIN",
      "locationDisplay": "Banjarmasin",
      "region": "Kalimantan Selatan",
      "latitude": -3.3194,
      "longitude": 114.5906,
      "membershipType": "Non-Member",
      "membershipRaw": ""
    },
    {
      "id": 136,
      "period": "202601",
      "customer": "LINTAS NETWORK SOLUSI",
      "location": "BANDUNG LEMBONG",
      "locationDisplay": "Bandung",
      "region": "Jawa Barat",
      "latitude": -6.9175,
      "longitude": 107.6191,
      "membershipType": "Non-Member",
      "membershipRaw": ""
    },
    {
      "id": 137,
      "period": "202601",
      "customer": "CENDIKIA GLOBAL SOLUSI",
      "location": "SEMARANG CANDI",
      "locationDisplay": "Semarang",
      "region": "Jawa Tengah",
      "latitude": -7.0051,
      "longitude": 110.4381,
      "membershipType": "Non-Member",
      "membershipRaw": ""
    },
    {
      "id": 138,
      "period": "202601",
      "customer": "MEDIA ALVINA SEJATI (MASNET)",
      "location": "MEDAN CENTRUM",
      "locationDisplay": "Medan",
      "region": "Sumatera Utara",
      "latitude": 3.5952,
      "longitude": 98.6722,
      "membershipType": "Class C",
      "membershipRaw": "Membership Class C"
    },
    {
      "id": 139,
      "period": "202601",
      "customer": "ABHINAWA SUMBERDAYA ASIA",
      "location": "JAKARTA KARET TENGSIN",
      "locationDisplay": "Jakarta",
      "region": "DKI Jakarta",
      "latitude": -6.1944,
      "longitude": 106.8229,
      "membershipType": "Class A",
      "membershipRaw": "Membership Class A"
    },
    {
      "id": 140,
      "period": "202601",
      "customer": "SARANA INSAN MUDA SELARAS (SIMS)",
      "location": "YOGYAKARTA KOTABARU",
      "locationDisplay": "Yogyakarta",
      "region": "DI Yogyakarta",
      "latitude": -7.7956,
      "longitude": 110.3695,
      "membershipType": "Class A",
      "membershipRaw": "Membership Class A"
    },
    {
      "id": 141,
      "period": "202601",
      "customer": "PT INDONESIA COMNET PLUS",
      "location": "SURABAYA KEBALEN",
      "locationDisplay": "Surabaya",
      "region": "Jawa Timur",
      "latitude": -7.2775,
      "longitude": 112.7391,
      "membershipType": "Non-Member",
      "membershipRaw": ""
    },
    {
      "id": 142,
      "period": "202601",
      "customer": "JALA LINTAS MEDIA",
      "location": "DENPASAR KALIASEM",
      "locationDisplay": "Denpasar",
      "region": "Bali",
      "latitude": -8.6705,
      "longitude": 115.2126,
      "membershipType": "Non-Member",
      "membershipRaw": ""
    },
    {
      "id": 143,
      "period": "202601",
      "customer": "CENDIKIA GLOBAL SOLUSI",
      "location": "MEDAN CENTRUM",
      "locationDisplay": "Medan",
      "region": "Sumatera Utara",
      "latitude": 3.5952,
      "longitude": 98.6722,
      "membershipType": "Non-Member",
      "membershipRaw": ""
    },
    {
      "id": 144,
      "period": "202601",
      "customer": "MEGA AKSES PERSADA (FIBERSTAR)",
      "location": "PALEMBANG TALANG KALAPA",
      "locationDisplay": "Palembang",
      "region": "Sumatera Selatan",
      "latitude": -2.9761,
      "longitude": 104.7754,
      "membershipType": "Non-Member",
      "membershipRaw": ""
    },
    {
      "id": 145,
      "period": "202601",
      "customer": "JALA LINTAS MEDIA",
      "location": "BATAM CENTRE",
      "locationDisplay": "Batam",
      "region": "Kepulauan Riau",
      "latitude": 1.1303,
      "longitude": 104.0533,
      "membershipType": "Non-Member",
      "membershipRaw": ""
    },
    {
      "id": 146,
      "period": "202601",
      "customer": "SOLNET INDONESIA",
      "location": "JAKARTA KARET TENGSIN",
      "locationDisplay": "Jakarta",
      "region": "DKI Jakarta",
      "latitude": -6.1944,
      "longitude": 106.8229,
      "membershipType": "Non-Member",
      "membershipRaw": ""
    },
    {
      "id": 147,
      "period": "202601",
      "customer": "PT. PARSAORAN GLOBAL DATATRANS (HSPNET)",
      "location": "PEKANBARU CENTRUM",
      "locationDisplay": "Pekanbaru",
      "region": "Riau",
      "latitude": 0.5071,
      "longitude": 101.4478,
      "membershipType": "Non-Member",
      "membershipRaw": ""
    },
    {
      "id": 148,
      "period": "202601",
      "customer": "PC24 CYBER TELIN",
      "location": "PALEMBANG TALANG KALAPA",
      "locationDisplay": "Palembang",
      "region": "Sumatera Selatan",
      "latitude": -2.9761,
      "longitude": 104.7754,
      "membershipType": "Non-Member",
      "membershipRaw": ""
    },
    {
      "id": 149,
      "period": "202601",
      "customer": "JELAJAH KREASI INFORMATIKA",
      "location": "JAKARTA KARET TENGSIN",
      "locationDisplay": "Jakarta",
      "region": "DKI Jakarta",
      "latitude": -6.1944,
      "longitude": 106.8229,
      "membershipType": "Class C",
      "membershipRaw": "Membership Class C"
    },
    {
      "id": 150,
      "period": "202601",
      "customer": "WOWRACK CEPAT TEKNOLOGI NUSANTARA (WOWNET)",
      "location": "SURABAYA GUBENG",
      "locationDisplay": "Surabaya",
      "region": "Jawa Timur",
      "latitude": -7.2651,
      "longitude": 112.7524,
      "membershipType": "Class C",
      "membershipRaw": "Membership Class C"
    },
    {
      "id": 151,
      "period": "202601",
      "customer": "LINTAS JARINGAN NUSANTARA",
      "location": "SURABAYA GUBENG",
      "locationDisplay": "Surabaya",
      "region": "Jawa Timur",
      "latitude": -7.2651,
      "longitude": 112.7524,
      "membershipType": "Class B",
      "membershipRaw": "Membership Class B"
    },
    {
      "id": 152,
      "period": "202601",
      "customer": "JARINGANKU SARANA NUSANTARA",
      "location": "DENPASAR KALIASEM",
      "locationDisplay": "Denpasar",
      "region": "Bali",
      "latitude": -8.6705,
      "longitude": 115.2126,
      "membershipType": "Non-Member",
      "membershipRaw": ""
    },
    {
      "id": 153,
      "period": "202601",
      "customer": "PRIMA PERSADA MULTIMEDIA",
      "location": "BANDUNG LEMBONG",
      "locationDisplay": "Bandung",
      "region": "Jawa Barat",
      "latitude": -6.9175,
      "longitude": 107.6191,
      "membershipType": "Non-Member",
      "membershipRaw": ""
    },
    {
      "id": 154,
      "period": "202601",
      "customer": "PADI INTERNET",
      "location": "JAKARTA KARET TENGSIN",
      "locationDisplay": "Jakarta",
      "region": "DKI Jakarta",
      "latitude": -6.1944,
      "longitude": 106.8229,
      "membershipType": "Non-Member",
      "membershipRaw": ""
    },
    {
      "id": 155,
      "period": "202601",
      "customer": "CROSS NETWORK INDONESIA",
      "location": "MAKASSAR MATOANGIN",
      "locationDisplay": "Makassar",
      "region": "Sulawesi Selatan",
      "latitude": -5.1477,
      "longitude": 119.4327,
      "membershipType": "Non-Member",
      "membershipRaw": ""
    },
    {
      "id": 156,
      "period": "202601",
      "customer": "TIGA PILAR BANUA",
      "location": "BANJARMASIN ULIN",
      "locationDisplay": "Banjarmasin",
      "region": "Kalimantan Selatan",
      "latitude": -3.3194,
      "longitude": 114.5906,
      "membershipType": "Non-Member",
      "membershipRaw": ""
    },
    {
      "id": 157,
      "period": "202601",
      "customer": "TRIKA GLOBAL MEDIA",
      "location": "DENPASAR KALIASEM",
      "locationDisplay": "Denpasar",
      "region": "Bali",
      "latitude": -8.6705,
      "longitude": 115.2126,
      "membershipType": "Non-Member",
      "membershipRaw": ""
    },
    {
      "id": 158,
      "period": "202601",
      "customer": "PT CYBERINDO ADITAMA",
      "location": "JAKARTA KARET TENGSIN",
      "locationDisplay": "Jakarta",
      "region": "DKI Jakarta",
      "latitude": -6.1944,
      "longitude": 106.8229,
      "membershipType": "Non-Member",
      "membershipRaw": ""
    },
    {
      "id": 159,
      "period": "202601",
      "customer": "SPARKOO TECHNOLOGIES INDONESIA",
      "location": "JAKARTA KARET TENGSIN",
      "locationDisplay": "Jakarta",
      "region": "DKI Jakarta",
      "latitude": -6.1944,
      "longitude": 106.8229,
      "membershipType": "Non-Member",
      "membershipRaw": ""
    },
    {
      "id": 160,
      "period": "202601",
      "customer": "MILENIAL INTI TELEKOMUNIKASI",
      "location": "BANDUNG LEMBONG",
      "locationDisplay": "Bandung",
      "region": "Jawa Barat",
      "latitude": -6.9175,
      "longitude": 107.6191,
      "membershipType": "Class C",
      "membershipRaw": "Membership Class C"
    },
    {
      "id": 161,
      "period": "202601",
      "customer": "TELKOM INFRASTRUKTUR INDONESIA",
      "location": "BANDUNG LEMBONG",
      "locationDisplay": "Bandung",
      "region": "Jawa Barat",
      "latitude": -6.9175,
      "longitude": 107.6191,
      "membershipType": "Class B",
      "membershipRaw": "Membership Class B"
    },
    {
      "id": 162,
      "period": "202601",
      "customer": "MAEJIN KARYA MEDIA",
      "location": "SEMARANG CANDI",
      "locationDisplay": "Semarang",
      "region": "Jawa Tengah",
      "latitude": -7.0051,
      "longitude": 110.4381,
      "membershipType": "Non-Member",
      "membershipRaw": ""
    },
    {
      "id": 163,
      "period": "202601",
      "customer": "PANDU PALAPA TELEMATIKA",
      "location": "MAKASSAR MATOANGIN",
      "locationDisplay": "Makassar",
      "region": "Sulawesi Selatan",
      "latitude": -5.1477,
      "longitude": 119.4327,
      "membershipType": "Non-Member",
      "membershipRaw": ""
    },
    {
      "id": 164,
      "period": "202601",
      "customer": "JALA LINTAS MEDIA",
      "location": "JAKARTA KARET TENGSIN",
      "locationDisplay": "Jakarta",
      "region": "DKI Jakarta",
      "latitude": -6.1944,
      "longitude": 106.8229,
      "membershipType": "Non-Member",
      "membershipRaw": ""
    },
    {
      "id": 165,
      "period": "202601",
      "customer": "NEXUS INDONESIA PLUS",
      "location": "BANJARMASIN ULIN",
      "locationDisplay": "Banjarmasin",
      "region": "Kalimantan Selatan",
      "latitude": -3.3194,
      "longitude": 114.5906,
      "membershipType": "Non-Member",
      "membershipRaw": ""
    },
    {
      "id": 166,
      "period": "202601",
      "customer": "RING MEDIA NUSANTARA",
      "location": "YOGYAKARTA KOTABARU",
      "locationDisplay": "Yogyakarta",
      "region": "DI Yogyakarta",
      "latitude": -7.7956,
      "longitude": 110.3695,
      "membershipType": "Non-Member",
      "membershipRaw": ""
    },
    {
      "id": 167,
      "period": "202601",
      "customer": "PT. PARSAORAN GLOBAL DATATRANS (HSPNET)",
      "location": "BANDUNG LEMBONG",
      "locationDisplay": "Bandung",
      "region": "Jawa Barat",
      "latitude": -6.9175,
      "longitude": 107.6191,
      "membershipType": "Class B",
      "membershipRaw": "Membership Class B"
    },
    {
      "id": 168,
      "period": "202601",
      "customer": "TELKOM INFRASTRUKTUR INDONESIA",
      "location": "PEKANBARU CENTRUM",
      "locationDisplay": "Pekanbaru",
      "region": "Riau",
      "latitude": 0.5071,
      "longitude": 101.4478,
      "membershipType": "Class C",
      "membershipRaw": "Membership Class C"
    },
    {
      "id": 169,
      "period": "202601",
      "customer": "MEGA AKSES PERSADA (FIBERSTAR)",
      "location": "MAKASSAR MATOANGIN",
      "locationDisplay": "Makassar",
      "region": "Sulawesi Selatan",
      "latitude": -5.1477,
      "longitude": 119.4327,
      "membershipType": "Non-Member",
      "membershipRaw": ""
    },
    {
      "id": 170,
      "period": "202601",
      "customer": "LINTAS DATA TRANS",
      "location": "BANDUNG LEMBONG",
      "locationDisplay": "Bandung",
      "region": "Jawa Barat",
      "latitude": -6.9175,
      "longitude": 107.6191,
      "membershipType": "Non-Member",
      "membershipRaw": ""
    },
    {
      "id": 171,
      "period": "202601",
      "customer": "GLOBAL INTERNET INDONESIA",
      "location": "JAKARTA KARET TENGSIN",
      "locationDisplay": "Jakarta",
      "region": "DKI Jakarta",
      "latitude": -6.1944,
      "longitude": 106.8229,
      "membershipType": "Non-Member",
      "membershipRaw": ""
    },
    {
      "id": 172,
      "period": "202601",
      "customer": "PT BATAM BINTAN TELEKOMUNIKASI",
      "location": "MEDAN CENTRUM",
      "locationDisplay": "Medan",
      "region": "Sumatera Utara",
      "latitude": 3.5952,
      "longitude": 98.6722,
      "membershipType": "Non-Member",
      "membershipRaw": ""
    },
    {
      "id": 173,
      "period": "202601",
      "customer": "SKYNET NETWORK BERSAMA",
      "location": "PEKANBARU CENTRUM",
      "locationDisplay": "Pekanbaru",
      "region": "Riau",
      "latitude": 0.5071,
      "longitude": 101.4478,
      "membershipType": "Non-Member",
      "membershipRaw": ""
    },
    {
      "id": 174,
      "period": "202601",
      "customer": "HASYA MITRA KOMUNIKA",
      "location": "MAKASSAR MATOANGIN",
      "locationDisplay": "Makassar",
      "region": "Sulawesi Selatan",
      "latitude": -5.1477,
      "longitude": 119.4327,
      "membershipType": "Non-Member",
      "membershipRaw": ""
    },
    {
      "id": 175,
      "period": "202601",
      "customer": "iFORTE SOLUSI INFOTEK",
      "location": "SEMARANG CANDI",
      "locationDisplay": "Semarang",
      "region": "Jawa Tengah",
      "latitude": -7.0051,
      "longitude": 110.4381,
      "membershipType": "Non-Member",
      "membershipRaw": ""
    },
    {
      "id": 176,
      "period": "202601",
      "customer": "ANDAL BERJAYA  INFOMEDIA",
      "location": "DENPASAR KALIASEM",
      "locationDisplay": "Denpasar",
      "region": "Bali",
      "latitude": -8.6705,
      "longitude": 115.2126,
      "membershipType": "Non-Member",
      "membershipRaw": ""
    },
    {
      "id": 177,
      "period": "202601",
      "customer": "UWAIS BORNEO GROUP",
      "location": "PONTIANAK CENTRUM",
      "locationDisplay": "Pontianak",
      "region": "Kalimantan Barat",
      "latitude": -0.0263,
      "longitude": 109.3425,
      "membershipType": "Non-Member",
      "membershipRaw": ""
    },
    {
      "id": 178,
      "period": "202601",
      "customer": "MANDALA LINTAS NUSA",
      "location": "MANADO PANIKI",
      "locationDisplay": "Manado",
      "region": "Sulawesi Utara",
      "latitude": 1.4748,
      "longitude": 124.8421,
      "membershipType": "Non-Member",
      "membershipRaw": ""
    },
    {
      "id": 179,
      "period": "202601",
      "customer": "SELARAS CITRA ARTMEDIA",
      "location": "SEMARANG CANDI",
      "locationDisplay": "Semarang",
      "region": "Jawa Tengah",
      "latitude": -7.0051,
      "longitude": 110.4381,
      "membershipType": "Non-Member",
      "membershipRaw": ""
    },
    {
      "id": 180,
      "period": "202601",
      "customer": "BOMM AKSES TEKNOLOGI",
      "location": "MAKASSAR MATOANGIN",
      "locationDisplay": "Makassar",
      "region": "Sulawesi Selatan",
      "latitude": -5.1477,
      "longitude": 119.4327,
      "membershipType": "Non-Member",
      "membershipRaw": ""
    },
    {
      "id": 181,
      "period": "202601",
      "customer": "MILENIAL INTI TELEKOMUNIKASI",
      "location": "ACEH CENTRUM",
      "locationDisplay": "Banda Aceh",
      "region": "Aceh",
      "latitude": 5.5577,
      "longitude": 95.3222,
      "membershipType": "Non-Member",
      "membershipRaw": ""
    },
    {
      "id": 182,
      "period": "202601",
      "customer": "SURYA TEKNIKA PRATAMA",
      "location": "BATAM CENTRE",
      "locationDisplay": "Batam",
      "region": "Kepulauan Riau",
      "latitude": 1.1303,
      "longitude": 104.0533,
      "membershipType": "Non-Member",
      "membershipRaw": ""
    },
    {
      "id": 183,
      "period": "202601",
      "customer": "SOLUSI TRIMEGAH PERSADA",
      "location": "JAKARTA KARET TENGSIN",
      "locationDisplay": "Jakarta",
      "region": "DKI Jakarta",
      "latitude": -6.1944,
      "longitude": 106.8229,
      "membershipType": "Class A",
      "membershipRaw": "Membership Class A"
    },
    {
      "id": 184,
      "period": "202601",
      "customer": "Ambhara Duta Shanti",
      "location": "BANDUNG LEMBONG",
      "locationDisplay": "Bandung",
      "region": "Jawa Barat",
      "latitude": -6.9175,
      "longitude": 107.6191,
      "membershipType": "Class B",
      "membershipRaw": "Membership Class B"
    },
    {
      "id": 185,
      "period": "202601",
      "customer": "VARNION TECHNOLOGY SEMESTA",
      "location": "JAKARTA KARET TENGSIN",
      "locationDisplay": "Jakarta",
      "region": "DKI Jakarta",
      "latitude": -6.1944,
      "longitude": 106.8229,
      "membershipType": "Class C",
      "membershipRaw": "Membership Class C"
    },
    {
      "id": 186,
      "period": "202601",
      "customer": "JALA LINTAS MEDIA",
      "location": "SEMARANG CANDI",
      "locationDisplay": "Semarang",
      "region": "Jawa Tengah",
      "latitude": -7.0051,
      "longitude": 110.4381,
      "membershipType": "Class B",
      "membershipRaw": "Membership Class B"
    },
    {
      "id": 187,
      "period": "202601",
      "customer": "MEDIA SARANA AKSES (MSA)",
      "location": "YOGYAKARTA KOTABARU",
      "locationDisplay": "Yogyakarta",
      "region": "DI Yogyakarta",
      "latitude": -7.7956,
      "longitude": 110.3695,
      "membershipType": "Non-Member",
      "membershipRaw": ""
    },
    {
      "id": 188,
      "period": "202601",
      "customer": "PT JEMBATAN CITRA NUSANTARA",
      "location": "SEMARANG CANDI",
      "locationDisplay": "Semarang",
      "region": "Jawa Tengah",
      "latitude": -7.0051,
      "longitude": 110.4381,
      "membershipType": "Non-Member",
      "membershipRaw": ""
    },
    {
      "id": 189,
      "period": "202601",
      "customer": "JINOM NETWORK INDONESIA",
      "location": "YOGYAKARTA KOTABARU",
      "locationDisplay": "Yogyakarta",
      "region": "DI Yogyakarta",
      "latitude": -7.7956,
      "longitude": 110.3695,
      "membershipType": "Non-Member",
      "membershipRaw": ""
    },
    {
      "id": 190,
      "period": "202601",
      "customer": "TRANS INDONESIA SUPERKORIDOR (TIS)",
      "location": "MAKASSAR MATOANGIN",
      "locationDisplay": "Makassar",
      "region": "Sulawesi Selatan",
      "latitude": -5.1477,
      "longitude": 119.4327,
      "membershipType": "Non-Member",
      "membershipRaw": ""
    },
    {
      "id": 191,
      "period": "202601",
      "customer": "MEDIANUSA PERMANA",
      "location": "BATAM CENTRE",
      "locationDisplay": "Batam",
      "region": "Kepulauan Riau",
      "latitude": 1.1303,
      "longitude": 104.0533,
      "membershipType": "Non-Member",
      "membershipRaw": ""
    },
    {
      "id": 192,
      "period": "202601",
      "customer": "PC24 CYBER TELIN",
      "location": "BANDUNG LEMBONG",
      "locationDisplay": "Bandung",
      "region": "Jawa Barat",
      "latitude": -6.9175,
      "longitude": 107.6191,
      "membershipType": "Non-Member",
      "membershipRaw": ""
    },
    {
      "id": 193,
      "period": "202601",
      "customer": "SELARAS CITRA TERABIT",
      "location": "SURABAYA GUBENG",
      "locationDisplay": "Surabaya",
      "region": "Jawa Timur",
      "latitude": -7.2651,
      "longitude": 112.7524,
      "membershipType": "Class B",
      "membershipRaw": "Membership Class B"
    },
    {
      "id": 194,
      "period": "202601",
      "customer": "PT CYBERINDO ADITAMA",
      "location": "BANJARMASIN ULIN",
      "locationDisplay": "Banjarmasin",
      "region": "Kalimantan Selatan",
      "latitude": -3.3194,
      "longitude": 114.5906,
      "membershipType": "Non-Member",
      "membershipRaw": ""
    },
    {
      "id": 195,
      "period": "202601",
      "customer": "PT GRAHA INFORMATIKA NUSANTARA",
      "location": "MAKASSAR MATOANGIN",
      "locationDisplay": "Makassar",
      "region": "Sulawesi Selatan",
      "latitude": -5.1477,
      "longitude": 119.4327,
      "membershipType": "Non-Member",
      "membershipRaw": ""
    },
    {
      "id": 196,
      "period": "202601",
      "customer": "JALA LINTAS MEDIA",
      "location": "SEMARANG CANDI",
      "locationDisplay": "Semarang",
      "region": "Jawa Tengah",
      "latitude": -7.0051,
      "longitude": 110.4381,
      "membershipType": "Non-Member",
      "membershipRaw": ""
    },
    {
      "id": 197,
      "period": "202601",
      "customer": "ARTHA TELEKOMINDO",
      "location": "JAKARTA KARET TENGSIN",
      "locationDisplay": "Jakarta",
      "region": "DKI Jakarta",
      "latitude": -6.1944,
      "longitude": 106.8229,
      "membershipType": "Non-Member",
      "membershipRaw": ""
    },
    {
      "id": 198,
      "period": "202601",
      "customer": "PT MULTI BERKAH ABADI",
      "location": "JAKARTA JATINEGARA",
      "locationDisplay": "Jakarta",
      "region": "DKI Jakarta",
      "latitude": -6.2146,
      "longitude": 106.8707,
      "membershipType": "Non-Member",
      "membershipRaw": ""
    },
    {
      "id": 199,
      "period": "202601",
      "customer": "PT HIPERNET INDODATA",
      "location": "MEDAN CENTRUM",
      "locationDisplay": "Medan",
      "region": "Sumatera Utara",
      "latitude": 3.5952,
      "longitude": 98.6722,
      "membershipType": "Non-Member",
      "membershipRaw": ""
    },
    {
      "id": 200,
      "period": "202601",
      "customer": "DEKADATA LINGKAR NUSANTARA",
      "location": "YOGYAKARTA KOTABARU",
      "locationDisplay": "Yogyakarta",
      "region": "DI Yogyakarta",
      "latitude": -7.7956,
      "longitude": 110.3695,
      "membershipType": "Non-Member",
      "membershipRaw": ""
    },
    {
      "id": 201,
      "period": "202601",
      "customer": "PT . INSAN SARANA TELEMATIKA",
      "location": "JAKARTA KARET TENGSIN",
      "locationDisplay": "Jakarta",
      "region": "DKI Jakarta",
      "latitude": -6.1944,
      "longitude": 106.8229,
      "membershipType": "Class C",
      "membershipRaw": "Membership Class C"
    },
    {
      "id": 202,
      "period": "202601",
      "customer": "CENTRIX MEDIA TEKNOLOGI",
      "location": "JAKARTA KARET TENGSIN",
      "locationDisplay": "Jakarta",
      "region": "DKI Jakarta",
      "latitude": -6.1944,
      "longitude": 106.8229,
      "membershipType": "Non-Member",
      "membershipRaw": ""
    },
    {
      "id": 203,
      "period": "202601",
      "customer": "UNIVERSITAS SEMARANG (Y. ALUMNI UNDIP)",
      "location": "BANDUNG LEMBONG",
      "locationDisplay": "Bandung",
      "region": "Jawa Barat",
      "latitude": -6.9175,
      "longitude": 107.6191,
      "membershipType": "Non-Member",
      "membershipRaw": ""
    },
    {
      "id": 204,
      "period": "202601",
      "customer": "PDAM KAB TAPIN",
      "location": "SURABAYA KEBALEN",
      "locationDisplay": "Surabaya",
      "region": "Jawa Timur",
      "latitude": -7.2775,
      "longitude": 112.7391,
      "membershipType": "Non-Member",
      "membershipRaw": ""
    },
    {
      "id": 205,
      "period": "202601",
      "customer": "PT BPR DELTA ARTHA",
      "location": "SURABAYA GUBENG",
      "locationDisplay": "Surabaya",
      "region": "Jawa Timur",
      "latitude": -7.2651,
      "longitude": 112.7524,
      "membershipType": "Non-Member",
      "membershipRaw": ""
    },
    {
      "id": 206,
      "period": "202601",
      "customer": "UNIVERSITAS MUHAMMADIYAH KALTIM",
      "location": "BALIKPAPAN BATUAMPAR",
      "locationDisplay": "Balikpapan",
      "region": "Kalimantan Timur",
      "latitude": -1.2379,
      "longitude": 116.8529,
      "membershipType": "Non-Member",
      "membershipRaw": ""
    },
    {
      "id": 207,
      "period": "202601",
      "customer": "PT GLOBAL JARINGAN BORNEO",
      "location": "MAKASSAR MATOANGIN",
      "locationDisplay": "Makassar",
      "region": "Sulawesi Selatan",
      "latitude": -5.1477,
      "longitude": 119.4327,
      "membershipType": "Non-Member",
      "membershipRaw": ""
    },
    {
      "id": 208,
      "period": "202601",
      "customer": "PT UNIVERSAL BROADBAND",
      "location": "JAKARTA KARET TENGSIN",
      "locationDisplay": "Jakarta",
      "region": "DKI Jakarta",
      "latitude": -6.1944,
      "longitude": 106.8229,
      "membershipType": "Non-Member",
      "membershipRaw": ""
    },
    {
      "id": 209,
      "period": "202601",
      "customer": "PEMKAB TANAH LAUT",
      "location": "BANJARMASIN ULIN",
      "locationDisplay": "Banjarmasin",
      "region": "Kalimantan Selatan",
      "latitude": -3.3194,
      "longitude": 114.5906,
      "membershipType": "Non-Member",
      "membershipRaw": ""
    },
    {
      "id": 210,
      "period": "202601",
      "customer": "PT PENDANAAN TEKNOLOGI NUSA",
      "location": "JAKARTA JATINEGARA",
      "locationDisplay": "Jakarta",
      "region": "DKI Jakarta",
      "latitude": -6.2146,
      "longitude": 106.8707,
      "membershipType": "Non-Member",
      "membershipRaw": ""
    },
    {
      "id": 211,
      "period": "202601",
      "customer": "KEMENTERIAN KOMUNIKASI DAN DIGITAL",
      "location": "JAKARTA JATINEGARA",
      "locationDisplay": "Jakarta",
      "region": "DKI Jakarta",
      "latitude": -6.2146,
      "longitude": 106.8707,
      "membershipType": "Non-Member",
      "membershipRaw": ""
    },
    {
      "id": 212,
      "period": "202601",
      "customer": "PEMKAB PESISIR SELATAN",
      "location": "JAKARTA JATINEGARA",
      "locationDisplay": "Jakarta",
      "region": "DKI Jakarta",
      "latitude": -6.2146,
      "longitude": 106.8707,
      "membershipType": "Non-Member",
      "membershipRaw": ""
    },
    {
      "id": 213,
      "period": "202601",
      "customer": "MITRANET SOFTWERE ONLINE",
      "location": "BANDUNG LEMBONG",
      "locationDisplay": "Bandung",
      "region": "Jawa Barat",
      "latitude": -6.9175,
      "longitude": 107.6191,
      "membershipType": "Non-Member",
      "membershipRaw": ""
    },
    {
      "id": 214,
      "period": "202601",
      "customer": "POLDA JAWA TIMUR",
      "location": "SURABAYA GUBENG",
      "locationDisplay": "Surabaya",
      "region": "Jawa Timur",
      "latitude": -7.2651,
      "longitude": 112.7524,
      "membershipType": "Non-Member",
      "membershipRaw": ""
    },
    {
      "id": 215,
      "period": "202601",
      "customer": "PEMPROV KALIMANTAN SELATAN",
      "location": "DENPASAR KALIASEM",
      "locationDisplay": "Denpasar",
      "region": "Bali",
      "latitude": -8.6705,
      "longitude": 115.2126,
      "membershipType": "Non-Member",
      "membershipRaw": ""
    },
    {
      "id": 216,
      "period": "202601",
      "customer": "PEMKAB HULU SUNGAI SELATAN",
      "location": "SURABAYA GUBENG",
      "locationDisplay": "Surabaya",
      "region": "Jawa Timur",
      "latitude": -7.2651,
      "longitude": 112.7524,
      "membershipType": "Non-Member",
      "membershipRaw": ""
    },
    {
      "id": 217,
      "period": "202601",
      "customer": "PT SINERGI GULA NUSANTARA",
      "location": "SURABAYA KEBALEN",
      "locationDisplay": "Surabaya",
      "region": "Jawa Timur",
      "latitude": -7.2775,
      "longitude": 112.7391,
      "membershipType": "Non-Member",
      "membershipRaw": ""
    },
    {
      "id": 218,
      "period": "202601",
      "customer": "RSUP PROF DR R D KANDOU",
      "location": "MANADO PANIKI",
      "locationDisplay": "Manado",
      "region": "Sulawesi Utara",
      "latitude": 1.4748,
      "longitude": 124.8421,
      "membershipType": "Non-Member",
      "membershipRaw": ""
    },
    {
      "id": 219,
      "period": "202601",
      "customer": "CV. ANEKA TEGUH JAYA",
      "location": "PALEMBANG TALANG KALAPA",
      "locationDisplay": "Palembang",
      "region": "Sumatera Selatan",
      "latitude": -2.9761,
      "longitude": 104.7754,
      "membershipType": "Non-Member",
      "membershipRaw": ""
    },
    {
      "id": 220,
      "period": "202601",
      "customer": "PEMKAB SIDOARJO",
      "location": "MALANG",
      "locationDisplay": "Malang",
      "region": "Jawa Timur",
      "latitude": -7.9666,
      "longitude": 112.6326,
      "membershipType": "Non-Member",
      "membershipRaw": ""
    },
    {
      "id": 221,
      "period": "202601",
      "customer": "PT WIJAYA LINTAS KOMINDO",
      "location": "BANDUNG LEMBONG",
      "locationDisplay": "Bandung",
      "region": "Jawa Barat",
      "latitude": -6.9175,
      "longitude": 107.6191,
      "membershipType": "Non-Member",
      "membershipRaw": ""
    },
    {
      "id": 222,
      "period": "202601",
      "customer": "PDAM SUMENEP",
      "location": "SURABAYA KEBALEN",
      "locationDisplay": "Surabaya",
      "region": "Jawa Timur",
      "latitude": -7.2775,
      "longitude": 112.7391,
      "membershipType": "Non-Member",
      "membershipRaw": ""
    },
    {
      "id": 223,
      "period": "202601",
      "customer": "PT MULTIMEDIA TRANS DATA",
      "location": "JAKARTA KARET TENGSIN",
      "locationDisplay": "Jakarta",
      "region": "DKI Jakarta",
      "latitude": -6.1944,
      "longitude": 106.8229,
      "membershipType": "Non-Member",
      "membershipRaw": ""
    },
    {
      "id": 224,
      "period": "202601",
      "customer": "UNSIQ WONOSOBO",
      "location": "YOGYAKARTA KOTABARU",
      "locationDisplay": "Yogyakarta",
      "region": "DI Yogyakarta",
      "latitude": -7.7956,
      "longitude": 110.3695,
      "membershipType": "Non-Member",
      "membershipRaw": ""
    },
    {
      "id": 225,
      "period": "202601",
      "customer": "PEMPROV PAPUA BARAT DAYA",
      "location": "MAKASSAR MATOANGIN",
      "locationDisplay": "Makassar",
      "region": "Sulawesi Selatan",
      "latitude": -5.1477,
      "longitude": 119.4327,
      "membershipType": "Non-Member",
      "membershipRaw": ""
    },
    {
      "id": 226,
      "period": "202601",
      "customer": "INSTITUT SENI INDONESIA SURAKARTA (ISI)",
      "location": "YOGYAKARTA KOTABARU",
      "locationDisplay": "Yogyakarta",
      "region": "DI Yogyakarta",
      "latitude": -7.7956,
      "longitude": 110.3695,
      "membershipType": "Non-Member",
      "membershipRaw": ""
    },
    {
      "id": 227,
      "period": "202601",
      "customer": "PT TIGA BELAS ENTERTAINMENT",
      "location": "JAKARTA KARET TENGSIN",
      "locationDisplay": "Jakarta",
      "region": "DKI Jakarta",
      "latitude": -6.1944,
      "longitude": 106.8229,
      "membershipType": "Non-Member",
      "membershipRaw": ""
    },
    {
      "id": 228,
      "period": "202601",
      "customer": "UNIVERSITAS TEUKU UMAR",
      "location": "ACEH CENTRUM",
      "locationDisplay": "Banda Aceh",
      "region": "Aceh",
      "latitude": 5.5577,
      "longitude": 95.3222,
      "membershipType": "Non-Member",
      "membershipRaw": ""
    },
    {
      "id": 229,
      "period": "202601",
      "customer": "UNIVERSITAS LAMPUNG",
      "location": "LAMPUNG TANJUNG KARANG",
      "locationDisplay": "Bandar Lampung",
      "region": "Lampung",
      "latitude": -5.4291,
      "longitude": 105.2619,
      "membershipType": "Non-Member",
      "membershipRaw": ""
    },
    {
      "id": 230,
      "period": "202601",
      "customer": "UNIVERSITAS SEBELAS MARET",
      "location": "DENPASAR KALIASEM",
      "locationDisplay": "Denpasar",
      "region": "Bali",
      "latitude": -8.6705,
      "longitude": 115.2126,
      "membershipType": "Non-Member",
      "membershipRaw": ""
    },
    {
      "id": 231,
      "period": "202601",
      "customer": "STT TELKOM",
      "location": "BANDUNG LEMBONG",
      "locationDisplay": "Bandung",
      "region": "Jawa Barat",
      "latitude": -6.9175,
      "longitude": 107.6191,
      "membershipType": "Non-Member",
      "membershipRaw": ""
    },
    {
      "id": 232,
      "period": "202601",
      "customer": "TELEKOMUNIKASI INDONESIA INTERNATIONAL",
      "location": "SURABAYA KEBALEN",
      "locationDisplay": "Surabaya",
      "region": "Jawa Timur",
      "latitude": -7.2775,
      "longitude": 112.7391,
      "membershipType": "Non-Member",
      "membershipRaw": ""
    },
    {
      "id": 233,
      "period": "202601",
      "customer": "MITRA LINTAS MULTIMEDIA",
      "location": "BANJARMASIN ULIN",
      "locationDisplay": "Banjarmasin",
      "region": "Kalimantan Selatan",
      "latitude": -3.3194,
      "longitude": 114.5906,
      "membershipType": "Non-Member",
      "membershipRaw": ""
    },
    {
      "id": 234,
      "period": "202601",
      "customer": "TELKOM DWS",
      "location": "JAKARTA KARET TENGSIN",
      "locationDisplay": "Jakarta",
      "region": "DKI Jakarta",
      "latitude": -6.1944,
      "longitude": 106.8229,
      "membershipType": "Non-Member",
      "membershipRaw": ""
    },
    {
      "id": 235,
      "period": "202601",
      "customer": "TELKOM INFRASTRUKTUR INDONESIA",
      "location": "MEDAN CENTRUM",
      "locationDisplay": "Medan",
      "region": "Sumatera Utara",
      "latitude": 3.5952,
      "longitude": 98.6722,
      "membershipType": "Class C",
      "membershipRaw": "Membership Class C"
    },
    {
      "id": 236,
      "period": "202601",
      "customer": "ACEHLINK MEDIA",
      "location": "ACEH CENTRUM",
      "locationDisplay": "Banda Aceh",
      "region": "Aceh",
      "latitude": 5.5577,
      "longitude": 95.3222,
      "membershipType": "Non-Member",
      "membershipRaw": ""
    },
    {
      "id": 237,
      "period": "202601",
      "customer": "TELEKOMUNIKASI INDONESIA INTERNATIONAL",
      "location": "MANADO PANIKI",
      "locationDisplay": "Manado",
      "region": "Sulawesi Utara",
      "latitude": 1.4748,
      "longitude": 124.8421,
      "membershipType": "Non-Member",
      "membershipRaw": ""
    },
    {
      "id": 238,
      "period": "202601",
      "customer": "TELKOM INFRASTRUKTUR INDONESIA",
      "location": "JAKARTA KARET TENGSIN",
      "locationDisplay": "Jakarta",
      "region": "DKI Jakarta",
      "latitude": -6.1944,
      "longitude": 106.8229,
      "membershipType": "Non-Member",
      "membershipRaw": ""
    },
    {
      "id": 239,
      "period": "202601",
      "customer": "COMTRONICS SYSTEMS",
      "location": "MEDAN CENTRUM",
      "locationDisplay": "Medan",
      "region": "Sumatera Utara",
      "latitude": 3.5952,
      "longitude": 98.6722,
      "membershipType": "Non-Member",
      "membershipRaw": ""
    },
    {
      "id": 240,
      "period": "202601",
      "customer": "TELEKOMUNIKASI INDONESIA INTERNATIONAL",
      "location": "JAKARTA KARET TENGSIN",
      "locationDisplay": "Jakarta",
      "region": "DKI Jakarta",
      "latitude": -6.1944,
      "longitude": 106.8229,
      "membershipType": "Non-Member",
      "membershipRaw": ""
    },
    {
      "id": 241,
      "period": "202601",
      "customer": "PT APLIKANUSA LINTASARTA",
      "location": "PALEMBANG TALANG KALAPA",
      "locationDisplay": "Palembang",
      "region": "Sumatera Selatan",
      "latitude": -2.9761,
      "longitude": 104.7754,
      "membershipType": "Non-Member",
      "membershipRaw": ""
    },
    {
      "id": 242,
      "period": "202601",
      "customer": "NAOMI AURORA TEKNOLOGI",
      "location": "PONTIANAK CENTRUM",
      "locationDisplay": "Pontianak",
      "region": "Kalimantan Barat",
      "latitude": -0.0263,
      "longitude": 109.3425,
      "membershipType": "Non-Member",
      "membershipRaw": ""
    },
    {
      "id": 243,
      "period": "202601",
      "customer": "FIBER NETWORKS INDONESIA",
      "location": "PALEMBANG TALANG KALAPA",
      "locationDisplay": "Palembang",
      "region": "Sumatera Selatan",
      "latitude": -2.9761,
      "longitude": 104.7754,
      "membershipType": "Non-Member",
      "membershipRaw": ""
    },
    {
      "id": 244,
      "period": "202601",
      "customer": "Integra Kreasitama Solusindo",
      "location": "MAKASSAR MATOANGIN",
      "locationDisplay": "Makassar",
      "region": "Sulawesi Selatan",
      "latitude": -5.1477,
      "longitude": 119.4327,
      "membershipType": "Non-Member",
      "membershipRaw": ""
    },
    {
      "id": 245,
      "period": "202601",
      "customer": "PT DUTAKOM WIBAWA PUTRA",
      "location": "SURABAYA GUBENG",
      "locationDisplay": "Surabaya",
      "region": "Jawa Timur",
      "latitude": -7.2651,
      "longitude": 112.7524,
      "membershipType": "Non-Member",
      "membershipRaw": ""
    },
    {
      "id": 246,
      "period": "202601",
      "customer": "KARYA ANEKA PERSADA",
      "location": "JAKARTA KARET TENGSIN",
      "locationDisplay": "Jakarta",
      "region": "DKI Jakarta",
      "latitude": -6.1944,
      "longitude": 106.8229,
      "membershipType": "Non-Member",
      "membershipRaw": ""
    },
    {
      "id": 247,
      "period": "202601",
      "customer": "PT INDOSAT TBK",
      "location": "MEDAN CENTRUM",
      "locationDisplay": "Medan",
      "region": "Sumatera Utara",
      "latitude": 3.5952,
      "longitude": 98.6722,
      "membershipType": "Non-Member",
      "membershipRaw": ""
    },
    {
      "id": 248,
      "period": "202601",
      "customer": "PT SOLUSINDO BINTANG PRATAMA",
      "location": "JAKARTA KARET TENGSIN",
      "locationDisplay": "Jakarta",
      "region": "DKI Jakarta",
      "latitude": -6.1944,
      "longitude": 106.8229,
      "membershipType": "Non-Member",
      "membershipRaw": ""
    },
    {
      "id": 249,
      "period": "202601",
      "customer": "DIGITAL SATELLITE INDONESIA",
      "location": "JAKARTA KARET TENGSIN",
      "locationDisplay": "Jakarta",
      "region": "DKI Jakarta",
      "latitude": -6.1944,
      "longitude": 106.8229,
      "membershipType": "Non-Member",
      "membershipRaw": ""
    },
    {
      "id": 250,
      "period": "202601",
      "customer": "GAYATRI LINTAS NUSANTARA",
      "location": "SURABAYA GUBENG",
      "locationDisplay": "Surabaya",
      "region": "Jawa Timur",
      "latitude": -7.2651,
      "longitude": 112.7524,
      "membershipType": "Class C",
      "membershipRaw": "Membership Class C"
    },
    {
      "id": 251,
      "period": "202601",
      "customer": "PATRIA LINTAS JAYA",
      "location": "JAKARTA KARET TENGSIN",
      "locationDisplay": "Jakarta",
      "region": "DKI Jakarta",
      "latitude": -6.1944,
      "longitude": 106.8229,
      "membershipType": "Non-Member",
      "membershipRaw": ""
    },
    {
      "id": 252,
      "period": "202601",
      "customer": "GRAHA ANUGERA SEJAHTERA",
      "location": "MANADO PANIKI",
      "locationDisplay": "Manado",
      "region": "Sulawesi Utara",
      "latitude": 1.4748,
      "longitude": 124.8421,
      "membershipType": "Non-Member",
      "membershipRaw": ""
    },
    {
      "id": 253,
      "period": "202601",
      "customer": "CYB MEDIA GROUP",
      "location": "YOGYAKARTA KOTABARU",
      "locationDisplay": "Yogyakarta",
      "region": "DI Yogyakarta",
      "latitude": -7.7956,
      "longitude": 110.3695,
      "membershipType": "Non-Member",
      "membershipRaw": ""
    },
    {
      "id": 254,
      "period": "202601",
      "customer": "MITRA VISIONER PRATAMA",
      "location": "DENPASAR KALIASEM",
      "locationDisplay": "Denpasar",
      "region": "Bali",
      "latitude": -8.6705,
      "longitude": 115.2126,
      "membershipType": "Non-Member",
      "membershipRaw": ""
    },
    {
      "id": 255,
      "period": "202601",
      "customer": "DIGITAL WIRELESS INDONESIA",
      "location": "MEDAN CENTRUM",
      "locationDisplay": "Medan",
      "region": "Sumatera Utara",
      "latitude": 3.5952,
      "longitude": 98.6722,
      "membershipType": "Non-Member",
      "membershipRaw": ""
    },
    {
      "id": 256,
      "period": "202601",
      "customer": "LINTASMAYA MULTI MEDIA",
      "location": "BALIKPAPAN BATUAMPAR",
      "locationDisplay": "Balikpapan",
      "region": "Kalimantan Timur",
      "latitude": -1.2379,
      "longitude": 116.8529,
      "membershipType": "Non-Member",
      "membershipRaw": ""
    },
    {
      "id": 257,
      "period": "202601",
      "customer": "XLSMART TELECOM SEJAHTERA",
      "location": "MEDAN CENTRUM",
      "locationDisplay": "Medan",
      "region": "Sumatera Utara",
      "latitude": 3.5952,
      "longitude": 98.6722,
      "membershipType": "Non-Member",
      "membershipRaw": ""
    },
    {
      "id": 258,
      "period": "202601",
      "customer": "PT . INSAN SARANA TELEMATIKA",
      "location": "BALIKPAPAN BATUAMPAR",
      "locationDisplay": "Balikpapan",
      "region": "Kalimantan Timur",
      "latitude": -1.2379,
      "longitude": 116.8529,
      "membershipType": "Non-Member",
      "membershipRaw": ""
    },
    {
      "id": 259,
      "period": "202601",
      "customer": "PT. PARSAORAN GLOBAL DATATRANS (HSPNET)",
      "location": "BANDUNG LEMBONG",
      "locationDisplay": "Bandung",
      "region": "Jawa Barat",
      "latitude": -6.9175,
      "longitude": 107.6191,
      "membershipType": "Non-Member",
      "membershipRaw": ""
    },
    {
      "id": 260,
      "period": "202601",
      "customer": "PT Trans Hybrid Communication",
      "location": "JAKARTA KARET TENGSIN",
      "locationDisplay": "Jakarta",
      "region": "DKI Jakarta",
      "latitude": -6.1944,
      "longitude": 106.8229,
      "membershipType": "Non-Member",
      "membershipRaw": ""
    },
    {
      "id": 261,
      "period": "202601",
      "customer": "iFORTE SOLUSI INFOTEK",
      "location": "BANDUNG LEMBONG",
      "locationDisplay": "Bandung",
      "region": "Jawa Barat",
      "latitude": -6.9175,
      "longitude": 107.6191,
      "membershipType": "Non-Member",
      "membershipRaw": ""
    },
    {
      "id": 262,
      "period": "202601",
      "customer": "SUGI BINTANG JAYA",
      "location": "MAKASSAR MATOANGIN",
      "locationDisplay": "Makassar",
      "region": "Sulawesi Selatan",
      "latitude": -5.1477,
      "longitude": 119.4327,
      "membershipType": "Non-Member",
      "membershipRaw": ""
    },
    {
      "id": 263,
      "period": "202601",
      "customer": "NUGRAHA UTAMA TEKNOLOGI",
      "location": "JAKARTA KARET TENGSIN",
      "locationDisplay": "Jakarta",
      "region": "DKI Jakarta",
      "latitude": -6.1944,
      "longitude": 106.8229,
      "membershipType": "Non-Member",
      "membershipRaw": ""
    },
    {
      "id": 264,
      "period": "202601",
      "customer": "TELKOM DATA EKOSISTEM",
      "location": "JAKARTA JATINEGARA",
      "locationDisplay": "Jakarta",
      "region": "DKI Jakarta",
      "latitude": -6.2146,
      "longitude": 106.8707,
      "membershipType": "Non-Member",
      "membershipRaw": ""
    },
    {
      "id": 265,
      "period": "202601",
      "customer": "ADISESHA PALLADIUM INTERCHANGE",
      "location": "SURABAYA GUBENG",
      "locationDisplay": "Surabaya",
      "region": "Jawa Timur",
      "latitude": -7.2651,
      "longitude": 112.7524,
      "membershipType": "Non-Member",
      "membershipRaw": ""
    },
    {
      "id": 266,
      "period": "202601",
      "customer": "PC24 CYBER TELIN",
      "location": "JAKARTA KARET TENGSIN",
      "locationDisplay": "Jakarta",
      "region": "DKI Jakarta",
      "latitude": -6.1944,
      "longitude": 106.8229,
      "membershipType": "Non-Member",
      "membershipRaw": ""
    },
    {
      "id": 267,
      "period": "202601",
      "customer": "SPARKOO TECHNOLOGIES INDONESIA",
      "location": "SURABAYA GUBENG",
      "locationDisplay": "Surabaya",
      "region": "Jawa Timur",
      "latitude": -7.2651,
      "longitude": 112.7524,
      "membershipType": "Non-Member",
      "membershipRaw": ""
    },
    {
      "id": 268,
      "period": "202601",
      "customer": "MEDIA SARANA AKSES (MSA)",
      "location": "DENPASAR KALIASEM",
      "locationDisplay": "Denpasar",
      "region": "Bali",
      "latitude": -8.6705,
      "longitude": 115.2126,
      "membershipType": "Non-Member",
      "membershipRaw": ""
    },
    {
      "id": 269,
      "period": "202601",
      "customer": "TELKOM INFRASTRUKTUR INDONESIA",
      "location": "JAKARTA KARET TENGSIN",
      "locationDisplay": "Jakarta",
      "region": "DKI Jakarta",
      "latitude": -6.1944,
      "longitude": 106.8229,
      "membershipType": "Class C",
      "membershipRaw": "Membership Class C"
    },
    {
      "id": 270,
      "period": "202601",
      "customer": "PT EKA MAS REPUBLIK",
      "location": "MAKASSAR MATOANGIN",
      "locationDisplay": "Makassar",
      "region": "Sulawesi Selatan",
      "latitude": -5.1477,
      "longitude": 119.4327,
      "membershipType": "Non-Member",
      "membershipRaw": ""
    },
    {
      "id": 271,
      "period": "202601",
      "customer": "JARINGAN VNT INDONESIA",
      "location": "JAKARTA KARET TENGSIN",
      "locationDisplay": "Jakarta",
      "region": "DKI Jakarta",
      "latitude": -6.1944,
      "longitude": 106.8229,
      "membershipType": "Non-Member",
      "membershipRaw": ""
    },
    {
      "id": 272,
      "period": "202601",
      "customer": "PT BATAM BINTAN TELEKOMUNIKASI",
      "location": "SURABAYA GUBENG",
      "locationDisplay": "Surabaya",
      "region": "Jawa Timur",
      "latitude": -7.2651,
      "longitude": 112.7524,
      "membershipType": "Non-Member",
      "membershipRaw": ""
    },
    {
      "id": 273,
      "period": "202601",
      "customer": "BAHAR MITRA NET",
      "location": "PALEMBANG TALANG KALAPA",
      "locationDisplay": "Palembang",
      "region": "Sumatera Selatan",
      "latitude": -2.9761,
      "longitude": 104.7754,
      "membershipType": "Non-Member",
      "membershipRaw": ""
    },
    {
      "id": 274,
      "period": "202601",
      "customer": "LINKNET",
      "location": "BANDUNG LEMBONG",
      "locationDisplay": "Bandung",
      "region": "Jawa Barat",
      "latitude": -6.9175,
      "longitude": 107.6191,
      "membershipType": "Non-Member",
      "membershipRaw": ""
    },
    {
      "id": 275,
      "period": "202601",
      "customer": "iFORTE SOLUSI INFOTEK",
      "location": "MANADO PANIKI",
      "locationDisplay": "Manado",
      "region": "Sulawesi Utara",
      "latitude": 1.4748,
      "longitude": 124.8421,
      "membershipType": "Non-Member",
      "membershipRaw": ""
    },
    {
      "id": 276,
      "period": "202601",
      "customer": "MEDIA KERINCI NETWORK",
      "location": "PALEMBANG TALANG KALAPA",
      "locationDisplay": "Palembang",
      "region": "Sumatera Selatan",
      "latitude": -2.9761,
      "longitude": 104.7754,
      "membershipType": "Non-Member",
      "membershipRaw": ""
    },
    {
      "id": 277,
      "period": "202601",
      "customer": "PADI INTERNET",
      "location": "SURABAYA GUBENG",
      "locationDisplay": "Surabaya",
      "region": "Jawa Timur",
      "latitude": -7.2651,
      "longitude": 112.7524,
      "membershipType": "Non-Member",
      "membershipRaw": ""
    },
    {
      "id": 278,
      "period": "202601",
      "customer": "WOWRACK INDONESIA",
      "location": "DENPASAR KALIASEM",
      "locationDisplay": "Denpasar",
      "region": "Bali",
      "latitude": -8.6705,
      "longitude": 115.2126,
      "membershipType": "Non-Member",
      "membershipRaw": ""
    },
    {
      "id": 279,
      "period": "202601",
      "customer": "MMS DIGITAL COMMUNICATION",
      "location": "MEDAN CENTRUM",
      "locationDisplay": "Medan",
      "region": "Sumatera Utara",
      "latitude": 3.5952,
      "longitude": 98.6722,
      "membershipType": "Non-Member",
      "membershipRaw": ""
    },
    {
      "id": 280,
      "period": "202601",
      "customer": "BINERKAHAN DIGITAL TELCO",
      "location": "BANDUNG LEMBONG",
      "locationDisplay": "Bandung",
      "region": "Jawa Barat",
      "latitude": -6.9175,
      "longitude": 107.6191,
      "membershipType": "Non-Member",
      "membershipRaw": ""
    },
    {
      "id": 281,
      "period": "202601",
      "customer": "PT JASNITA TELEKOMINDO",
      "location": "YOGYAKARTA KOTABARU",
      "locationDisplay": "Yogyakarta",
      "region": "DI Yogyakarta",
      "latitude": -7.7956,
      "longitude": 110.3695,
      "membershipType": "Class A",
      "membershipRaw": "Membership Class A"
    },
    {
      "id": 282,
      "period": "202601",
      "customer": "CITRA AGUNG MESTIKA",
      "location": "MANADO PANIKI",
      "locationDisplay": "Manado",
      "region": "Sulawesi Utara",
      "latitude": 1.4748,
      "longitude": 124.8421,
      "membershipType": "Non-Member",
      "membershipRaw": ""
    },
    {
      "id": 283,
      "period": "202601",
      "customer": "DIGITAL APLIKASI SOLUSI",
      "location": "BANDUNG LEMBONG",
      "locationDisplay": "Bandung",
      "region": "Jawa Barat",
      "latitude": -6.9175,
      "longitude": 107.6191,
      "membershipType": "Non-Member",
      "membershipRaw": ""
    },
    {
      "id": 284,
      "period": "202601",
      "customer": "TERASYS VIRTUAL",
      "location": "JAKARTA KARET TENGSIN",
      "locationDisplay": "Jakarta",
      "region": "DKI Jakarta",
      "latitude": -6.1944,
      "longitude": 106.8229,
      "membershipType": "Non-Member",
      "membershipRaw": ""
    },
    {
      "id": 285,
      "period": "202601",
      "customer": "PT HIPERNET INDODATA",
      "location": "SEMARANG CANDI",
      "locationDisplay": "Semarang",
      "region": "Jawa Tengah",
      "latitude": -7.0051,
      "longitude": 110.4381,
      "membershipType": "Non-Member",
      "membershipRaw": ""
    },
    {
      "id": 286,
      "period": "202601",
      "customer": "INTERNET SOLUSI PRIMA",
      "location": "SEMARANG CANDI",
      "locationDisplay": "Semarang",
      "region": "Jawa Tengah",
      "latitude": -7.0051,
      "longitude": 110.4381,
      "membershipType": "Non-Member",
      "membershipRaw": ""
    },
    {
      "id": 287,
      "period": "202601",
      "customer": "PT SOLUSINDO BINTANG PRATAMA",
      "location": "JAKARTA MERUYA",
      "locationDisplay": "Jakarta",
      "region": "DKI Jakarta",
      "latitude": -6.1951,
      "longitude": 106.7328,
      "membershipType": "Non-Member",
      "membershipRaw": ""
    },